title,description,address,locality,region,latitude,longitude,price,currency,propertyType,postedBy,sellerName,url
undefined,,,Peeramcheru,Hyderabad,17.3570149,78.369664,,,Apartment,,,https://www.magicbricks.com/propertyDetails/3-BHK-1680-Sq-ft-Multistorey-Apartment-FOR-Sale-Peeramcheru-in-Hyderabad&id=4d423830363231353233
3 BHK Apartment for Sale in Bachupally Hyderabad,,,Bachupally,Hyderabad,17.551816,78.3860695,,,Apartment,,,https://www.magicbricks.com/propertyDetails/3-BHK-1914-Sq-ft-Multistorey-Apartment-FOR-Sale-Bachupally-in-Hyderabad&id=4d423830353531353639
3 BHK Apartment for Sale in Nizampet Hyderabad,,,Nizampet,Hyderabad,17.527174687878116,78.37881107144624,,,Apartment,,,https://www.magicbricks.com/propertyDetails/3-BHK-1680-Sq-ft-Multistorey-Apartment-FOR-Sale-Nizampet-in-Hyderabad&id=4d423739313331383135
3 BHK  House for Sale in Shapur Nagar Hyderabad,,,Shapur Nagar,Hyderabad,17.5170607338372,78.4437100545133,,,SingleFamilyResidence,,,https://www.magicbricks.com/propertyDetails/3-BHK-1198-Sq-ft-Residential-House-FOR-Sale-Shapur-Nagar-in-Hyderabad&id=4d423739313734383137
3 BHK  House for Sale in Medchal Hyderabad,,,Medchal,Hyderabad,17.631427764892578,78.48319244384766,,,SingleFamilyResidence,,,https://www.magicbricks.com/propertyDetails/3-BHK-1100-Sq-ft-Residential-House-FOR-Sale-Medchal-in-Hyderabad&id=4d423733393431313237
"3 BHK Apartment for Sale in Miyapur, NH 9 Hyderabad",,,Miyapur,Hyderabad,17.4996031,78.3548413,,,Apartment,,,https://www.magicbricks.com/propertyDetails/3-BHK-1550-Sq-ft-Multistorey-Apartment-FOR-Sale-Miyapur-in-Hyderabad&id=4d423736313932363733
"2 BHK  House for Sale in Injapur, Neeladri Nagar, Ibrahimpatnam Road Hyderabad",,,Injapur,Hyderabad,17.30522346496582,78.58707427978516,,,SingleFamilyResidence,,,https://www.magicbricks.com/propertyDetails/2-BHK-165-Sq-yrd-Residential-House-FOR-Sale-Injapur-in-Hyderabad&id=4d423438313532373733
3 BHK Apartment for Sale in Nacharam Hyderabad,,,Nacharam,Hyderabad,17.397220611572266,78.59650421142578,,,Apartment,,,https://www.magicbricks.com/propertyDetails/3-BHK-1450-Sq-ft-Multistorey-Apartment-FOR-Sale-Nacharam-in-Hyderabad&id=4d423732393230313839
2 BHK Apartment for Sale in Kapra Hyderabad,,,Kapra,Hyderabad,17.4895887084433,78.5826508140709,,,Apartment,,,https://www.magicbricks.com/propertyDetails/2-BHK-2068-Sq-ft-Multistorey-Apartment-FOR-Sale-Kapra-in-Hyderabad&id=4d423636323135383339
3 BHK Builder Floor for Sale in Bachupally Hyderabad,,,Bachupally,Hyderabad,17.551816,78.3860695,,,Apartment,,,https://www.magicbricks.com/propertyDetails/3-BHK-1554-Sq-ft-Builder-Floor-Apartment-FOR-Sale-Bachupally-in-Hyderabad&id=4d423735373237343837
"6 BHK  House for Sale in Bahadurpura West, Bahadurpura, NH 7 Hyderabad",,,Bahadurpura West,Hyderabad,17.43647003173828,78.38533020019531,,,SingleFamilyResidence,,,https://www.magicbricks.com/propertyDetails/6-BHK-285-Sq-yrd-Residential-House-FOR-Sale-Bahadurpura-West-in-Hyderabad&id=4d423433313339393339
2 BHK Apartment for Sale in Gachibowli Hyderabad,,,Gachibowli,Hyderabad,17.4325241,78.3682998,,,Apartment,,,https://www.magicbricks.com/propertyDetails/2-BHK-1300-Sq-ft-Multistorey-Apartment-FOR-Sale-Gachibowli-in-Hyderabad&id=4d423734353739393537
3 BHK Villa for Sale in Kongara Kalan Hyderabad,,,,Hyderabad,17.1999424863356,78.5505290053583,,,SingleFamilyResidence,,,https://www.magicbricks.com/propertyDetails/3-BHK-2900-Sq-ft-Villa-FOR-Sale-Kongara-Kalan-in-Hyderabad&id=4d423732383638363531
3 BHK Apartment for Sale in Ameenpur Hyderabad,,,,Hyderabad,17.5265125876332,78.3316496153237,,,Apartment,,,https://www.magicbricks.com/propertyDetails/3-BHK-2055-Sq-ft-Multistorey-Apartment-FOR-Sale-Ameenpur-in-Hyderabad&id=4d423830343731333933
3 BHK Villa for Sale in Jalpally Hyderabad,,,Jalpally,Hyderabad,18.02262663,79.05156582,,,SingleFamilyResidence,,,https://www.magicbricks.com/propertyDetails/3-BHK-150-Sq-yrd-Villa-FOR-Sale-Jalpally-in-Hyderabad&id=4d423738343536323837
3 BHK Builder Floor for Sale in Yapral Hyderabad,,,Yapral,Hyderabad,17.5117481,78.5345816,,,Apartment,,,https://www.magicbricks.com/propertyDetails/3-BHK-1650-Sq-ft-Builder-Floor-Apartment-FOR-Sale-Yapral-in-Hyderabad&id=4d423734303035393935
"3 BHK Apartment for Sale in Hafeezpet, NH 9 Hyderabad",,,Hafeezpet,Hyderabad,17.485805,78.352671,,,Apartment,,,https://www.magicbricks.com/propertyDetails/3-BHK-1425-Sq-ft-Multistorey-Apartment-FOR-Sale-Hafeezpet-in-Hyderabad&id=4d423830333739363933
"2 BHK Apartment for Sale in RamNaresh Nagar, Hyder Nagar Hyderabad",,,RamNaresh Nagar,Hyderabad,17.5023011,78.3827995,,,Apartment,,,https://www.magicbricks.com/propertyDetails/2-BHK-1285-Sq-ft-Multistorey-Apartment-FOR-Sale-RamNaresh-Nagar-in-Hyderabad&id=4d423738303434363931
3 BHK Apartment for Sale in Nagole Hyderabad,,,Nagole,Hyderabad,17.3647205,78.5665472,,,Apartment,,,https://www.magicbricks.com/propertyDetails/3-BHK-1510-Sq-ft-Multistorey-Apartment-FOR-Sale-Nagole-in-Hyderabad&id=4d423730313139303337
3 BHK  House for Sale in BN Reddy Nagar Hyderabad,,,,Hyderabad,17.3107274917361,78.5590719494449,,,SingleFamilyResidence,,,https://www.magicbricks.com/propertyDetails/3-BHK-1250-Sq-ft-Residential-House-FOR-Sale-BN-Reddy-Nagar-in-Hyderabad&id=4d423538313833313637
3 BHK  House for Sale in Balanagar Hyderabad,,,Balanagar,Hyderabad,17.4776099,78.4446202,,,SingleFamilyResidence,,,https://www.magicbricks.com/propertyDetails/3-BHK-1800-Sq-ft-Residential-House-FOR-Sale-Balanagar-in-Hyderabad&id=4d423637323230323333
3 BHK Apartment for Sale in Masab Tank Hyderabad,,,Masab Tank,Hyderabad,17.401342941220975,78.45687405840116,,,Apartment,,,https://www.magicbricks.com/propertyDetails/3-BHK-1650-Sq-ft-Multistorey-Apartment-FOR-Sale-Masab-Tank-in-Hyderabad&id=4d423637323035333635
3 BHK Villa for Sale in Dammaiguda Hyderabad,,,Dammaiguda,Hyderabad,17.5012465,78.5997209,,,SingleFamilyResidence,,,https://www.magicbricks.com/propertyDetails/3-BHK-1612-Sq-ft-Villa-FOR-Sale-Dammaiguda-in-Hyderabad&id=4d423731343636393437
3 BHK Apartment for Sale in Ameenpur Hyderabad,,,,Hyderabad,17.5265125876332,78.3316496153237,,,Apartment,,,https://www.magicbricks.com/propertyDetails/3-BHK-2055-Sq-ft-Multistorey-Apartment-FOR-Sale-Ameenpur-in-Hyderabad&id=4d423830343731333933
4 BHK Villa for Sale in Gundlapochampalli Hyderabad,,,Gundlapochampalli,Hyderabad,17.57292366027832,78.4734115600586,,,SingleFamilyResidence,,,https://www.magicbricks.com/propertyDetails/4-BHK-2400-Sq-ft-Villa-FOR-Sale-Gundlapochampalli-in-Hyderabad&id=4d423739373733363339
2 BHK  House for Sale in Adibatla Hyderabad,,,Adibatla,Hyderabad,17.2343752,78.543781,,,SingleFamilyResidence,,,https://www.magicbricks.com/propertyDetails/2-BHK-1700-Sq-ft-Residential-House-FOR-Sale-Adibatla-in-Hyderabad&id=4d423638323531303337
3 BHK Apartment for Sale in Nanakramguda Hyderabad,,,,Hyderabad,,,,,Apartment,,,https://www.magicbricks.com/propertyDetails/3-BHK-1200-Sq-ft-Multistorey-Apartment-FOR-Sale-in-Hyderabad&id=4d423638323830323335
3 BHK Apartment for Sale in Nagole Hyderabad,,,Nagole,Hyderabad,17.3647205,78.5665472,,,Apartment,,,https://www.magicbricks.com/propertyDetails/3-BHK-1510-Sq-ft-Multistorey-Apartment-FOR-Sale-Nagole-in-Hyderabad&id=4d423632303737393139
9 BHK  House for Sale in Moula Ali Hyderabad,,,Moula Ali,Hyderabad,17.4573369,78.560785,,,SingleFamilyResidence,,,https://www.magicbricks.com/propertyDetails/9-BHK-5616-Sq-ft-Residential-House-FOR-Sale-Moula-Ali-in-Hyderabad&id=4d423630393533383033
2 BHK  House for Sale in Badangpet Hyderabad,,,Badangpet,Hyderabad,17.3021345311744,78.5280636394728,,,SingleFamilyResidence,,,https://www.magicbricks.com/propertyDetails/2-BHK-1500-Sq-ft-Residential-House-FOR-Sale-Badangpet-in-Hyderabad&id=4d423736383736363935
3 BHK  House for Sale in Kazipally Medak Hyderabad,,,Kazipally Medak,Hyderabad,18.013591766357422,78.31892395019531,,,SingleFamilyResidence,,,https://www.magicbricks.com/propertyDetails/3-BHK-1940-Sq-ft-Residential-House-FOR-Sale-Kazipally-Medak-in-Hyderabad&id=4d423732393634323435
"2 BHK Apartment for Sale in Hafeezpet, NH 9 Hyderabad",,,Hafeezpet,Hyderabad,17.485805,78.352671,,,Apartment,,,https://www.magicbricks.com/propertyDetails/2-BHK-1240-Sq-ft-Multistorey-Apartment-FOR-Sale-Hafeezpet-in-Hyderabad&id=4d423730353030393237
"2 BHK  House for Sale in Machabollaram, Medchal Road Hyderabad",,,Machabollaram,Hyderabad,17.5158382666158,78.5112942076793,,,SingleFamilyResidence,,,https://www.magicbricks.com/propertyDetails/2-BHK-1600-Sq-ft-Residential-House-FOR-Sale-Machabollaram-in-Hyderabad&id=4d423435363739393039
5 BHK  House for Sale in Hakimpet Hyderabad,,,,Hyderabad,,,,,SingleFamilyResidence,,,https://www.magicbricks.com/propertyDetails/5-BHK-125-Sq-yrd-Residential-House-FOR-Sale-Hakimpet-in-Hyderabad&id=4d423732373036313133
"2 BHK  House for Sale in Vanasthalipuram, NH 9 Hyderabad",,,Vanasthalipuram,Hyderabad,17.3238888273844,78.5756320027867,,,SingleFamilyResidence,,,https://www.magicbricks.com/propertyDetails/2-BHK-150-Sq-yrd-Residential-House-FOR-Sale-Vanasthalipuram-in-Hyderabad&id=4d423631363132303031
4 BHK  House for Sale in Balapur Hyderabad,,,Balapur,Hyderabad,17.301606,78.503743,,,SingleFamilyResidence,,,https://www.magicbricks.com/propertyDetails/4-BHK-150-Sq-yrd-Residential-House-FOR-Sale-Balapur-in-Hyderabad&id=4d423733303539343531
  House for Sale in Amberpet Hyderabad,,,Amberpet,Hyderabad,17.4008705,78.5227905,,,SingleFamilyResidence,,,https://www.magicbricks.com/propertyDetails/624-Sq-yrd-Residential-House-FOR-Sale-Amberpet-in-Hyderabad&id=4d423233363736323331
3 BHK Builder Floor for Sale in Rai Durg Hyderabad,,,Rai Durg,Hyderabad,17.4210469334674,78.3847371173505,,,Apartment,,,https://www.magicbricks.com/propertyDetails/3-BHK-1710-Sq-ft-Builder-Floor-Apartment-FOR-Sale-Rai-Durg-in-Hyderabad&id=4d423730313735343335
4 BHK Apartment for Sale in Diamond Hills Colony Hyderabad,,,,Hyderabad,17.39542217,78.39087559,,,Apartment,,,https://www.magicbricks.com/propertyDetails/4-BHK-1800-Sq-ft-Multistorey-Apartment-FOR-Sale-Diamond-Hills-Colony-in-Hyderabad&id=4d423734303436373931
2 BHK Apartment for Sale in Bachupally Hyderabad,,,Bachupally,Hyderabad,17.551816,78.3860695,,,Apartment,,,https://www.magicbricks.com/propertyDetails/2-BHK-1388-Sq-ft-Multistorey-Apartment-FOR-Sale-Bachupally-in-Hyderabad&id=4d423738313031323739
3 BHK Apartment for Sale in Bachupally Hyderabad,,,Bachupally,Hyderabad,17.551816,78.3860695,,,Apartment,,,https://www.magicbricks.com/propertyDetails/3-BHK-1625-Sq-ft-Multistorey-Apartment-FOR-Sale-Bachupally-in-Hyderabad&id=4d423830333336333139
4 BHK  House for Sale in Nagaram Hyderabad,,,Nagaram,Hyderabad,17.4838610299951,78.6084083107014,,,SingleFamilyResidence,,,https://www.magicbricks.com/propertyDetails/4-BHK-2970-Sq-ft-Residential-House-FOR-Sale-Nagaram-in-Hyderabad&id=4d423638323338363737
6 BHK  House for Sale in AG Colony Erragadda Hyderabad,,,AG Colony Erragadda,Hyderabad,17.453990936279297,78.4312515258789,,,SingleFamilyResidence,,,https://www.magicbricks.com/propertyDetails/6-BHK-140-Sq-yrd-Residential-House-FOR-Sale-AG-Colony-Erragadda-in-Hyderabad&id=4d423830303238343235
4 BHK Villa for Sale in BHAVNA S VENKY ESTATES Hyderabad,,,,Hyderabad,,,,,SingleFamilyResidence,,,https://www.magicbricks.com/propertyDetails/4-BHK-150-Sq-yrd-Villa-FOR-Sale-in-Hyderabad&id=4d423636343736333439
3 BHK Apartment for Sale in Attapur Hyderabad,,,Attapur,Hyderabad,17.3493880394452,78.4130563068722,,,Apartment,,,https://www.magicbricks.com/propertyDetails/3-BHK-1604-Sq-ft-Multistorey-Apartment-FOR-Sale-Attapur-in-Hyderabad&id=4d423731323538333533
"3 BHK Apartment for Sale in Boduppal, NH 2 2 Hyderabad",,,Boduppal,Hyderabad,17.4117293,78.5857782,,,Apartment,,,https://www.magicbricks.com/propertyDetails/3-BHK-1645-Sq-ft-Multistorey-Apartment-FOR-Sale-Boduppal-in-Hyderabad&id=4d423634353332343235
3 BHK Apartment for Sale in Suchitra Road Hyderabad,,,Suchitra Circle,Hyderabad,17.509233619284352,78.46999431534256,,,Apartment,,,https://www.magicbricks.com/propertyDetails/3-BHK-1740-Sq-ft-Multistorey-Apartment-FOR-Sale-Suchitra-Circle-in-Hyderabad&id=4d423738333735383335
3 BHK Apartment for Sale in Gopanpally Hyderabad,,,Gopanpally,Hyderabad,17.443563,78.3397746,,,Apartment,,,https://www.magicbricks.com/propertyDetails/3-BHK-1760-Sq-ft-Multistorey-Apartment-FOR-Sale-Gopanpally-in-Hyderabad&id=4d423733393133323731
2 BHK Apartment for Sale in Kondapur Hyderabad,,,Kondapur,Hyderabad,17.4661387919325,78.3574087383959,,,Apartment,,,https://www.magicbricks.com/propertyDetails/2-BHK-1490-Sq-ft-Multistorey-Apartment-FOR-Sale-Kondapur-in-Hyderabad&id=4d423738343630373635
3 BHK Apartment for Sale in Kondapur Hyderabad,,,Kondapur,Hyderabad,17.462192,78.3685357,,,Apartment,,,https://www.magicbricks.com/propertyDetails/3-BHK-2000-Sq-ft-Multistorey-Apartment-FOR-Sale-Kondapur-in-Hyderabad&id=4d423639373531333533
"3 BHK Apartment for Sale in Saroornagar, NH 9 Hyderabad",,,Saroornagar,Hyderabad,17.353714,78.530972,,,Apartment,,,https://www.magicbricks.com/propertyDetails/3-BHK-1755-Sq-ft-Multistorey-Apartment-FOR-Sale-Saroornagar-in-Hyderabad&id=4d423730303831333439
3 BHK Apartment for Sale in Durga Nagar Colony Karmanghat Hyderabad,,,Durga Nagar Colony,Hyderabad,17.342241287231445,78.53656768798828,,,Apartment,,,https://www.magicbricks.com/propertyDetails/3-BHK-2000-Sq-ft-Multistorey-Apartment-FOR-Sale-Durga-Nagar-Colony-in-Hyderabad&id=4d423739353034383231
3 BHK Apartment for Sale in Gowdavalli Hyderabad,,,,Hyderabad,17.59806664121737,78.46760103068259,,,Apartment,,,https://www.magicbricks.com/propertyDetails/3-BHK-1740-Sq-ft-Multistorey-Apartment-FOR-Sale-Gowdavalli-in-Hyderabad&id=4d423637343336343433
3 BHK Apartment for Sale in Nagole Hyderabad,,,Nagole,Hyderabad,17.3647205,78.5665472,,,Apartment,,,https://www.magicbricks.com/propertyDetails/3-BHK-1500-Sq-ft-Multistorey-Apartment-FOR-Sale-Nagole-in-Hyderabad&id=4d423731383937383235
3 BHK  House for Sale in Bandlaguda Colony Hyderabad,,,Bandlaguda Colony,Hyderabad,17.503820419311523,78.61920928955078,,,SingleFamilyResidence,,,https://www.magicbricks.com/propertyDetails/3-BHK-2800-Sq-ft-Residential-House-FOR-Sale-Bandlaguda-Colony-in-Hyderabad&id=4d423732383734363531
3 BHK Apartment for Sale in Chanda Nagar Hyderabad,,,,Hyderabad,17.495596,78.324149,,,Apartment,,,https://www.magicbricks.com/propertyDetails/3-BHK-1610-Sq-ft-Multistorey-Apartment-FOR-Sale-Chanda-Nagar-in-Hyderabad&id=4d423739343832303437
3 BHK Apartment for Sale in AS Rao Nagar Hyderabad,,,AS Rao Nagar,Hyderabad,17.397232055664062,78.59650421142578,,,Apartment,,,https://www.magicbricks.com/propertyDetails/3-BHK-1700-Sq-ft-Multistorey-Apartment-FOR-Sale-AS-Rao-Nagar-in-Hyderabad&id=4d423731303334323431
3 BHK  House for Sale in Prashanth Nagar Langar Houz Hyderabad,,,Prashanth Nagar Langar Houz,Hyderabad,17.37665282,78.41860325,,,SingleFamilyResidence,,,https://www.magicbricks.com/propertyDetails/3-BHK-200-Sq-ft-Residential-House-FOR-Sale-Prashanth-Nagar-Langar-Houz-in-Hyderabad&id=4d423730303034353439
3 BHK  House for Sale in Rajendranagar Mandal Hyderabad,,,Rajendranagar Mandal,Hyderabad,17.308095932006836,78.39665222167969,,,SingleFamilyResidence,,,https://www.magicbricks.com/propertyDetails/3-BHK-141-Sq-yrd-Residential-House-FOR-Sale-Rajendra-Nagar-in-Hyderabad&id=4d423637363739343537
2 BHK Apartment for Sale in Moti Nagar Erragadda Hyderabad,,,Moti Nagar,Hyderabad,17.4464575,78.4185155,,,Apartment,,,https://www.magicbricks.com/propertyDetails/2-BHK-1177-Sq-ft-Multistorey-Apartment-FOR-Sale-Moti-Nagar-in-Hyderabad&id=4d423739313837353035
"2 BHK Apartment for Sale in Miyapur, NH 9 Hyderabad",,,Miyapur,Hyderabad,17.5210925,78.3442965,,,Apartment,,,https://www.magicbricks.com/propertyDetails/2-BHK-1330-Sq-ft-Multistorey-Apartment-FOR-Sale-Miyapur-in-Hyderabad&id=4d423830353336353939
2 BHK Apartment for Sale in Hitech City Hyderabad,,,Hitech City,Hyderabad,17.467921,78.40813,,,Apartment,,,https://www.magicbricks.com/propertyDetails/2-BHK-1200-Sq-ft-Multistorey-Apartment-FOR-Sale-Hitech-City-in-Hyderabad&id=4d423731383538343531
3 BHK Apartment for Sale in Patancheruvu Hyderabad,,,Patancheru,Hyderabad,17.513124465942383,78.25969696044922,,,Apartment,,,https://www.magicbricks.com/propertyDetails/3-BHK-1585-Sq-ft-Multistorey-Apartment-FOR-Sale-Patancheru-in-Hyderabad&id=4d423736303033303937
3 BHK Apartment for Sale in Sri Ram Nagar Kondapur Hyderabad,,,Sri Ram Nagar,Hyderabad,17.4677754,78.362754,,,Apartment,,,https://www.magicbricks.com/propertyDetails/3-BHK-1570-Sq-ft-Multistorey-Apartment-FOR-Sale-Sri-Ram-Nagar-in-Hyderabad&id=4d423638303931303431
2 BHK Apartment for Sale in Bachupally Hyderabad,,,Bachupally,Hyderabad,17.551816,78.3860695,,,Apartment,,,https://www.magicbricks.com/propertyDetails/2-BHK-1110-Sq-ft-Multistorey-Apartment-FOR-Sale-Bachupally-in-Hyderabad&id=4d423739343731363535
3 BHK Villa for Sale in Dammaiguda Hyderabad,,,Dammaiguda,Hyderabad,17.50124740600586,78.59972381591797,,,SingleFamilyResidence,,,https://www.magicbricks.com/propertyDetails/3-BHK-2500-Sq-ft-Villa-FOR-Sale-Dammaiguda-in-Hyderabad&id=4d423539393530303835
"3 BHK Apartment for Sale in Vittal Rao Nagar, Hitech City Hyderabad",,,Vittal Rao Nagar,Hyderabad,17.4427521934261,78.3867618651035,,,Apartment,,,https://www.magicbricks.com/propertyDetails/3-BHK-1572-Sq-ft-Multistorey-Apartment-FOR-Sale-Vittal-Rao-Nagar-in-Hyderabad&id=4d423635373531383235
4 BHK  House for Sale in BN Reddy Nagar Hyderabad,,,,Hyderabad,17.310728073120117,78.55907440185547,,,SingleFamilyResidence,,,https://www.magicbricks.com/propertyDetails/4-BHK-350-Sq-ft-Residential-House-FOR-Sale-BN-Reddy-Nagar-in-Hyderabad&id=4d423730313132353137
3 BHK Apartment for Sale in Suchitra Road Hyderabad,,,Suchitra Circle,Hyderabad,17.5027207,78.4703634,,,Apartment,,,https://www.magicbricks.com/propertyDetails/3-BHK-1748-Sq-ft-Multistorey-Apartment-FOR-Sale-Suchitra-Circle-in-Hyderabad&id=4d423731393738333331
3 BHK  House for Sale in Kapra Hyderabad,,,Kapra,Hyderabad,17.4895887084433,78.5826508140709,,,SingleFamilyResidence,,,https://www.magicbricks.com/propertyDetails/3-BHK-139-Sq-yrd-Residential-House-FOR-Sale-Kapra-in-Hyderabad&id=4d423830333832303333
"2 BHK  House for Sale in Mahalakshmi colony , chengicherla, Hyderabad",,,,Hyderabad,,,,,SingleFamilyResidence,,,https://www.magicbricks.com/propertyDetails/2-BHK-126-Sq-yrd-Residential-House-FOR-Sale-in-Hyderabad&id=4d423738353032313633
2 BHK Builder Floor for Sale in Nagaram Hyderabad,,,Nagaram,Hyderabad,16.004962921142578,80.72549438476562,,,Apartment,,,https://www.magicbricks.com/propertyDetails/2-BHK-3600-Sq-ft-Builder-Floor-Apartment-FOR-Sale-Nagaram-in-Hyderabad&id=4d423634343131303931
6 BHK  House for Sale in Satya Nagar Hayathnagar Khalsa Hyderabad,,,Satya Nagar,Hyderabad,17.397197723388672,78.59651947021484,,,SingleFamilyResidence,,,https://www.magicbricks.com/propertyDetails/6-BHK-2400-Sq-ft-Residential-House-FOR-Sale-Satya-Nagar-in-Hyderabad&id=4d423634353837333937
4 BHK  House for Sale in Borabanda Hyderabad,,,Borabanda,Hyderabad,17.457763671875,78.45244598388672,,,SingleFamilyResidence,,,https://www.magicbricks.com/propertyDetails/4-BHK-127-Sq-ft-Residential-House-FOR-Sale-Borabanda-in-Hyderabad&id=4d423536303432383931
3 BHK Builder Floor for Sale in Bagh Amberpet Hyderabad,,,Bagh Amberpet,Hyderabad,17.40013885498047,78.59601593017578,,,Apartment,,,https://www.magicbricks.com/propertyDetails/3-BHK-1450-Sq-ft-Builder-Floor-Apartment-FOR-Sale-Bagh-Amberpet-in-Hyderabad&id=4d423734343436343637
"3 BHK Apartment for Sale in Boduppal, NH 2 2 Hyderabad",,,Boduppal,Hyderabad,17.419488,78.5856329,,,Apartment,,,https://www.magicbricks.com/propertyDetails/3-BHK-1640-Sq-ft-Multistorey-Apartment-FOR-Sale-Boduppal-in-Hyderabad&id=4d423635313737383537
3 BHK Apartment for Sale in Jeedimetla Main Road Hyderabad,,,Jeedimetla Main Road,Hyderabad,17.5197995,78.4580485,,,Apartment,,,https://www.magicbricks.com/propertyDetails/3-BHK-1830-Sq-ft-Multistorey-Apartment-FOR-Sale-Jeedimetla-Main-Road-in-Hyderabad&id=4d423737313430373833
"3 BHK Apartment for Sale in Infocitys Inspire, Gachibowli, Hyderabad,Infocitys Inspire, Gachibowli, Hyderabad Hyderabad",,,,Hyderabad,17.4752583,78.3336085,,,Apartment,,,https://www.magicbricks.com/propertyDetails/3-BHK-1610-Sq-ft-Multistorey-Apartment-FOR-Sale-in-Hyderabad&id=4d423733393235383939
3 BHK Apartment for Sale in Gachibowli Hyderabad,,,Gachibowli,Hyderabad,17.443563,78.3397746,,,Apartment,,,https://www.magicbricks.com/propertyDetails/3-BHK-1198-Sq-ft-Multistorey-Apartment-FOR-Sale-Gachibowli-in-Hyderabad&id=4d423731393135363937
"3 BHK Apartment for Sale in Narsingi, Outer Ring Road Hyderabad",,,Narsingi,Hyderabad,17.395367978138943,78.3578086835387,,,Apartment,,,https://www.magicbricks.com/propertyDetails/3-BHK-1760-Sq-ft-Multistorey-Apartment-FOR-Sale-Narsingi-in-Hyderabad&id=4d423738303039383335
2 BHK  House for Sale in Hyderabad,,,,Hyderabad,,,,,SingleFamilyResidence,,,https://www.magicbricks.com/propertyDetails/2-BHK-1600-Sq-ft-Residential-House-FOR-Sale-in-Hyderabad&id=4d423732383935373039
"3 BHK Apartment for Sale in Malakpet, NH 9 Hyderabad",,,Malakpet,Hyderabad,17.39675192,78.52022698,,,Apartment,,,https://www.magicbricks.com/propertyDetails/3-BHK-1600-Sq-ft-Multistorey-Apartment-FOR-Sale-Malakpet-in-Hyderabad&id=4d423733343832353031
3 BHK Apartment for Sale in Bowrampet Road Hyderabad,,,Bowrampet Road,Hyderabad,17.551816,78.3860695,,,Apartment,,,https://www.magicbricks.com/propertyDetails/3-BHK-1554-Sq-ft-Multistorey-Apartment-FOR-Sale-Bowrampet-Road-in-Hyderabad&id=4d423731313438343637
3 BHK  House for Sale in Narapally SBI Bank Hyderabad,,,,Hyderabad,,,,,SingleFamilyResidence,,,https://www.magicbricks.com/propertyDetails/3-BHK-149-Sq-yrd-Residential-House-FOR-Sale-in-Hyderabad&id=4d423638313838323039
"2 BHK Apartment for Sale in Peerzadiguda, NH 2 2 Hyderabad",,,Peerzadiguda,Hyderabad,17.4027678988506,78.6284890189194,,,Apartment,,,https://www.magicbricks.com/propertyDetails/2-BHK-1226-Sq-ft-Multistorey-Apartment-FOR-Sale-Peerzadiguda-in-Hyderabad&id=4d423733313932313035
4 BHK  House for Sale in Bandlaguda Nagole Hyderabad,,,Bandlaguda Nagole,Hyderabad,17.3698473963932,78.5732556644916,,,SingleFamilyResidence,,,https://www.magicbricks.com/propertyDetails/4-BHK-1250-Sq-ft-Residential-House-FOR-Sale-Bandlaguda-Nagole-in-Hyderabad&id=4d423636313633393937
2 BHK Apartment for Sale in Bandlaguda Jagir Hyderabad,,,Bandlaguda Jagir,Hyderabad,17.3571086350415,78.3948731204593,,,Apartment,,,https://www.magicbricks.com/propertyDetails/2-BHK-1450-Sq-ft-Multistorey-Apartment-FOR-Sale-Bandlaguda-Jagir-in-Hyderabad&id=4d423738343731353431
4 BHK  House for Sale in Dammaiguda Hyderabad,,,Dammaiguda,Hyderabad,17.5012465,78.5997209,,,SingleFamilyResidence,,,https://www.magicbricks.com/propertyDetails/4-BHK-2600-Sq-ft-Residential-House-FOR-Sale-Dammaiguda-in-Hyderabad&id=4d423634333633373435
"3 BHK Apartment for Sale in Miyapur, NH 9 Hyderabad",,,Miyapur,Hyderabad,17.5210925,78.3442965,,,Apartment,,,https://www.magicbricks.com/propertyDetails/3-BHK-1710-Sq-ft-Multistorey-Apartment-FOR-Sale-Miyapur-in-Hyderabad&id=4d423734313331323033
3 BHK Apartment for Sale in Bahadurpally Hyderabad,,,Bahadurpally,Hyderabad,17.5685303259486,78.4392142028651,,,Apartment,,,https://www.magicbricks.com/propertyDetails/3-BHK-1685-Sq-ft-Multistorey-Apartment-FOR-Sale-Bahadurpally-in-Hyderabad&id=4d423830353536323433
"3 BHK Apartment for Sale in Kollur, Outer Ring Road Hyderabad",,,Kollur,Hyderabad,17.515892468917965,78.23865832698293,,,Apartment,,,https://www.magicbricks.com/propertyDetails/3-BHK-1850-Sq-ft-Multistorey-Apartment-FOR-Sale-Kollur-in-Hyderabad&id=4d423737333330343635
2 BHK  House for Sale in Patel Guda Mangalpalle Hyderabad,,,Patel Guda Mangalpalle,Hyderabad,17.21639633178711,78.58194732666016,,,SingleFamilyResidence,,,https://www.magicbricks.com/propertyDetails/2-BHK-1350-Sq-ft-Residential-House-FOR-Sale-Patel-Guda-Mangalpalle-in-Hyderabad&id=4d423732303133373437
2 BHK  House for Sale in Nagaram Main Road Hyderabad,,,Nagaram Main Road,Hyderabad,17.49041555,78.60000411,,,SingleFamilyResidence,,,https://www.magicbricks.com/propertyDetails/2-BHK-1566-Sq-ft-Residential-House-FOR-Sale-Nagaram-Main-Road-in-Hyderabad&id=4d423732303632353733
3 BHK Apartment for Sale in Bandlaguda Jagir Hyderabad,,,Bandlaguda Jagir,Hyderabad,17.3571086350415,78.3948731204593,,,Apartment,,,https://www.magicbricks.com/propertyDetails/3-BHK-1735-Sq-ft-Multistorey-Apartment-FOR-Sale-Bandlaguda-Jagir-in-Hyderabad&id=4d423830343739303235
3 BHK Apartment for Sale in Manikonda Jagir Hyderabad,,,Manikonda,Hyderabad,17.406845092773438,78.3726806640625,,,Apartment,,,https://www.magicbricks.com/propertyDetails/3-BHK-2095-Sq-ft-Multistorey-Apartment-FOR-Sale-Manikonda-in-Hyderabad&id=4d423634343735383737
3 BHK Apartment for Sale in Anand Nagar Bandlaguda Hyderabad,,,Anand Nagar,Hyderabad,17.3695135051451,78.5761101115763,,,Apartment,,,https://www.magicbricks.com/propertyDetails/3-BHK-2242-Sq-ft-Multistorey-Apartment-FOR-Sale-Anand-Nagar-in-Hyderabad&id=4d423732303438373835
4 BHK  House for Sale in Patelguda Hyderabad,,,Patelguda,Hyderabad,17.547947,78.287101,,,SingleFamilyResidence,,,https://www.magicbricks.com/propertyDetails/4-BHK-150-Sq-yrd-Residential-House-FOR-Sale-Patelguda-in-Hyderabad&id=4d423732303430323635
3 BHK Apartment for Sale in Nagole Hyderabad,,,Nagole,Hyderabad,17.374372,78.579101,,,Apartment,,,https://www.magicbricks.com/propertyDetails/3-BHK-2237-Sq-ft-Multistorey-Apartment-FOR-Sale-Nagole-in-Hyderabad&id=4d423536313430303437
2 BHK Apartment for Sale in Matrusri Nagar Hyderabad,,,,Hyderabad,,,,,Apartment,,,https://www.magicbricks.com/propertyDetails/2-BHK-1225-Sq-ft-Multistorey-Apartment-FOR-Sale-in-Hyderabad&id=4d423731393435333431
3 BHK Apartment for Sale in Kompally Hyderabad,,,Kompally,Hyderabad,17.5425945515091,78.4822910638784,,,Apartment,,,https://www.magicbricks.com/propertyDetails/3-BHK-1525-Sq-ft-Multistorey-Apartment-FOR-Sale-Kompally-in-Hyderabad&id=4d423731393433313131
3 BHK Villa for Sale in Kompally Hyderabad,,,Kompally,Hyderabad,17.5425945515091,78.4822910638784,,,SingleFamilyResidence,,,https://www.magicbricks.com/propertyDetails/3-BHK-2250-Sq-ft-Villa-FOR-Sale-Kompally-in-Hyderabad&id=4d423739383032333633
"3 BHK Apartment for Sale in Pragathi Nagar, Kukatpally Hyderabad",,,Pragathi Nagar,Hyderabad,17.520383834838867,78.3983154296875,,,Apartment,,,https://www.magicbricks.com/propertyDetails/3-BHK-1790-Sq-ft-Multistorey-Apartment-FOR-Sale-Pragathi-Nagar-in-Hyderabad&id=4d423731393431373235
3 BHK Apartment for Sale in Kalamandir road Hyderabad,,,,Hyderabad,,,,,Apartment,,,https://www.magicbricks.com/propertyDetails/3-BHK-1500-Sq-ft-Multistorey-Apartment-FOR-Sale-in-Hyderabad&id=4d423738343835343835
2 BHK Apartment for Sale in Bandlaguda Jagir Road Hyderabad,,,Bandlaguda Jagir Road,Hyderabad,17.35639752,78.38212492,,,Apartment,,,https://www.magicbricks.com/propertyDetails/2-BHK-1600-Sq-ft-Multistorey-Apartment-FOR-Sale-Bandlaguda-Jagir-Road-in-Hyderabad&id=4d423732333035313135
2 BHK  House for Sale in Himagiri Nagar Hyderabad,,,Himagiri Nagar,Hyderabad,17.36314775,78.38655706,,,SingleFamilyResidence,,,https://www.magicbricks.com/propertyDetails/2-BHK-148-Sq-yrd-Residential-House-FOR-Sale-Himagiri-Nagar-in-Hyderabad&id=4d423734333237353333
5 BHK  House for Sale in Jagathgiri Gutta Hyderabad,,,,Hyderabad,17.507179260253906,78.41885375976562,,,SingleFamilyResidence,,,https://www.magicbricks.com/propertyDetails/5-BHK-1250-Sq-ft-Residential-House-FOR-Sale-Jagathgiri-Gutta-in-Hyderabad&id=4d423635313737383439
2 BHK Apartment for Sale in Serilingampalle M Hyderabad,,,Serilingampally,Hyderabad,17.472901556316433,78.34156058465622,,,Apartment,,,https://www.magicbricks.com/propertyDetails/2-BHK-1280-Sq-ft-Multistorey-Apartment-FOR-Sale-Serilingampally-in-Hyderabad&id=4d423635313737363435
2 BHK  House for Sale in HAL Colony Jeedimetla Hyderabad,,,HAL Colony,Hyderabad,17.524133682250977,78.42528533935547,,,SingleFamilyResidence,,,https://www.magicbricks.com/propertyDetails/2-BHK-120-Sq-yrd-Residential-House-FOR-Sale-HAL-Colony-in-Hyderabad&id=4d423635313737323137
3 BHK Apartment for Sale in Bachupally Hyderabad,,,Bachupally,Hyderabad,17.551816,78.3860695,,,Apartment,,,https://www.magicbricks.com/propertyDetails/3-BHK-1853-Sq-ft-Multistorey-Apartment-FOR-Sale-Bachupally-in-Hyderabad&id=4d423635313633333739
3 BHK Apartment for Sale in Bachupally Hyderabad,,,Bachupally,Hyderabad,17.551816,78.3860695,,,Apartment,,,https://www.magicbricks.com/propertyDetails/3-BHK-1353-Sq-ft-Multistorey-Apartment-FOR-Sale-Bachupally-in-Hyderabad&id=4d423739323437343239
3 BHK Apartment for Sale in Kapra Hyderabad,,,Kapra,Hyderabad,17.500619,78.556259,,,Apartment,,,https://www.magicbricks.com/propertyDetails/3-BHK-1800-Sq-ft-Multistorey-Apartment-FOR-Sale-Kapra-in-Hyderabad&id=4d423635313431373337
3 BHK Apartment for Sale in Snehita Hills TSPA Hyderabad,,,,Hyderabad,,,,,Apartment,,,https://www.magicbricks.com/propertyDetails/3-BHK-1780-Sq-ft-Multistorey-Apartment-FOR-Sale-in-Hyderabad&id=4d423730303539353931
4 BHK  House for Sale in Dammaiguda silent Avenue colony Hyderabad,,,,Hyderabad,,,,,SingleFamilyResidence,,,https://www.magicbricks.com/propertyDetails/4-BHK-2000-Sq-ft-Residential-House-FOR-Sale-in-Hyderabad&id=4d423639313337303533
"2 BHK Apartment for Sale in Kollur, Outer Ring Road Hyderabad",,,Kollur,Hyderabad,17.4344695,78.2425939,,,Apartment,,,https://www.magicbricks.com/propertyDetails/2-BHK-1295-Sq-ft-Multistorey-Apartment-FOR-Sale-Kollur-in-Hyderabad&id=4d423735353431353831
3 BHK Apartment for Sale in Ashok Marg Hyderabad,,,Ashok Marg,Hyderabad,17.456138,78.42833931,,,Apartment,,,https://www.magicbricks.com/propertyDetails/3-BHK-1250-Sq-ft-Multistorey-Apartment-FOR-Sale-Ashok-Marg-in-Hyderabad&id=4d423737313331323931
"3 BHK Apartment for Sale in Samata Colony, Toli Chowki Hyderabad",,,Samata Colony,Hyderabad,17.398887634277344,78.4025650024414,,,Apartment,,,https://www.magicbricks.com/propertyDetails/3-BHK-1200-Sq-ft-Multistorey-Apartment-FOR-Sale-Samata-Colony-in-Hyderabad&id=4d423733393330323939
3 BHK  House for Sale in Ram Bagh Colony Hyderabad,,,,Hyderabad,,,,,SingleFamilyResidence,,,https://www.magicbricks.com/propertyDetails/3-BHK-2700-Sq-ft-Residential-House-FOR-Sale-in-Hyderabad&id=4d423639313435393033
3 BHK Apartment for Sale in Nallagandla Hyderabad,,,,Hyderabad,,,,,Apartment,,,https://www.magicbricks.com/propertyDetails/3-BHK-1350-Sq-ft-Multistorey-Apartment-FOR-Sale-in-Hyderabad&id=4d423731393332343239
3 BHK  House for Sale in Jeedimetla Hyderabad,,,Jeedimetla,Hyderabad,17.42267417907715,78.49393463134766,,,SingleFamilyResidence,,,https://www.magicbricks.com/propertyDetails/3-BHK-1800-Sq-ft-Residential-House-FOR-Sale-Jeedimetla-in-Hyderabad&id=4d423737343836383935
2 BHK Apartment for Sale in Gachibowli Hyderabad,,,Gachibowli,Hyderabad,17.443563,78.3397746,,,Apartment,,,https://www.magicbricks.com/propertyDetails/2-BHK-1360-Sq-ft-Multistorey-Apartment-FOR-Sale-Gachibowli-in-Hyderabad&id=4d423731393330333131
3 BHK Apartment for Sale in Hyderabad Hyderabad,,,,Hyderabad,,,,,Apartment,,,https://www.magicbricks.com/propertyDetails/3-BHK-1492-Sq-ft-Multistorey-Apartment-FOR-Sale-in-Hyderabad&id=4d423731393235323737
6 BHK  House for Sale in Subash Nagar Hyderabad,,,,Hyderabad,17.51757442,78.46088091,,,SingleFamilyResidence,,,https://www.magicbricks.com/propertyDetails/6-BHK-900-Sq-ft-Residential-House-FOR-Sale-Subash-Nagar-in-Hyderabad&id=4d423731393233393533
2 BHK  House for Sale in Lothukunta Hyderabad,,,Lothkunta,Hyderabad,17.49651336669922,78.51258087158203,,,SingleFamilyResidence,,,https://www.magicbricks.com/propertyDetails/2-BHK-1200-Sq-ft-Residential-House-FOR-Sale-Lothkunta-in-Hyderabad&id=4d423535333333353331
4 BHK  House for Sale in Dammaiguda Hyderabad,,,Dammaiguda,Hyderabad,17.5012465,78.5997209,,,SingleFamilyResidence,,,https://www.magicbricks.com/propertyDetails/4-BHK-167-Sq-yrd-Residential-House-FOR-Sale-Dammaiguda-in-Hyderabad&id=4d423637313239373035
1 BHK  House for Sale in Sri Vivekananda Nagar  Madhapur Hyderabad,,,,Hyderabad,,,,,SingleFamilyResidence,,,https://www.magicbricks.com/propertyDetails/1-BHK-100-Sq-yrd-Residential-House-FOR-Sale-in-Hyderabad&id=4d423739353236323133
1 BHK  House for Sale in Warasiguda Hyderabad,,,Warasiguda,Hyderabad,17.4187662744719,78.5135143457873,,,SingleFamilyResidence,,,https://www.magicbricks.com/propertyDetails/1-BHK-150-Sq-yrd-Residential-House-FOR-Sale-Warasiguda-in-Hyderabad&id=4d423535353034303833
2 BHK  House for Sale in PNR Colony Hyderabad,,,,Hyderabad,,,,,SingleFamilyResidence,,,https://www.magicbricks.com/propertyDetails/2-BHK-150-Sq-yrd-Residential-House-FOR-Sale-in-Hyderabad&id=4d423737313233353137
3 BHK Apartment for Sale in Gachibowli Hyderabad,,,Gachibowli,Hyderabad,17.443563,78.3397746,,,Apartment,,,https://www.magicbricks.com/propertyDetails/3-BHK-1198-Sq-ft-Multistorey-Apartment-FOR-Sale-Gachibowli-in-Hyderabad&id=4d423733393534343139
3 BHK Apartment for Sale in urban abode Hyderabad,,,,Hyderabad,,,,,Apartment,,,https://www.magicbricks.com/propertyDetails/3-BHK-1835-Sq-ft-Multistorey-Apartment-FOR-Sale-in-Hyderabad&id=4d423731393137323137
3 BHK  House for Sale in Jeedimetla Hyderabad,,,Jeedimetla,Hyderabad,17.42267417907715,78.49393463134766,,,SingleFamilyResidence,,,https://www.magicbricks.com/propertyDetails/3-BHK-1800-Sq-ft-Residential-House-FOR-Sale-Jeedimetla-in-Hyderabad&id=4d423737343836383935
3 BHK Apartment for Sale in Nizampet Hyderabad,,,Nizampet,Hyderabad,17.5185832117791,78.3809840599711,,,Apartment,,,https://www.magicbricks.com/propertyDetails/3-BHK-1430-Sq-ft-Multistorey-Apartment-FOR-Sale-Nizampet-in-Hyderabad&id=4d423736303333393931
3 BHK Villa for Sale in Shamirpet Road Hyderabad,,,Shamirpet Road,Hyderabad,17.515657424926758,78.52162170410156,,,SingleFamilyResidence,,,https://www.magicbricks.com/propertyDetails/3-BHK-2400-Sq-ft-Villa-FOR-Sale-Shamirpet-Road-in-Hyderabad&id=4d423734373530313631
"7 BHK Apartment for Sale in Hafeezpet, NH 9 Hyderabad",,,Hafeezpet,Hyderabad,17.4852259481084,78.3660756560879,,,Apartment,,,https://www.magicbricks.com/propertyDetails/7-BHK-950-Sq-ft-Multistorey-Apartment-FOR-Sale-Hafeezpet-in-Hyderabad&id=4d423531363333313431
3 BHK Apartment for Sale in Rai Durg Hyderabad,,,Rai Durg,Hyderabad,17.443563,78.3397746,,,Apartment,,,https://www.magicbricks.com/propertyDetails/3-BHK-1500-Sq-ft-Multistorey-Apartment-FOR-Sale-Rai-Durg-in-Hyderabad&id=4d423730393837333137
3 BHK Builder Floor for Sale in Hayathnagar Khalsa Hyderabad,,,Hayathnagar,Hyderabad,17.330230712890625,78.60249328613281,,,Apartment,,,https://www.magicbricks.com/propertyDetails/3-BHK-2200-Sq-ft-Builder-Floor-Apartment-FOR-Sale-Hayathnagar-in-Hyderabad&id=4d423630343538353435
"3 BHK Apartment for Sale in Gundlapochampally, Outer Ring Road Hyderabad",,,Gundlapochampally,Hyderabad,17.56952604,78.47133665,,,Apartment,,,https://www.magicbricks.com/propertyDetails/3-BHK-1362-Sq-ft-Multistorey-Apartment-FOR-Sale-Gundlapochampally-in-Hyderabad&id=4d423735373733363133
"3 BHK Apartment for Sale in Kukatpally, NH 9 Hyderabad",,,Kukatpally,Hyderabad,17.492736,78.401235,,,Apartment,,,https://www.magicbricks.com/propertyDetails/3-BHK-1600-Sq-ft-Multistorey-Apartment-FOR-Sale-Kukatpally-in-Hyderabad&id=4d423733313137313237
4 BHK  House for Sale in Shankerpally Hyderabad,,,,Hyderabad,,,,,SingleFamilyResidence,,,https://www.magicbricks.com/propertyDetails/4-BHK-2980-Sq-ft-Residential-House-FOR-Sale-in-Hyderabad&id=4d423636313633353139
"3 BHK Apartment for Sale in Kollur, Outer Ring Road Hyderabad",,,Kollur,Hyderabad,17.4344695,78.2425939,,,Apartment,,,https://www.magicbricks.com/propertyDetails/3-BHK-1700-Sq-ft-Multistorey-Apartment-FOR-Sale-Kollur-in-Hyderabad&id=4d423731393931343039
3 BHK  House for Sale in Hayathnagar Hyderabad,,,Hayathnagar,Hyderabad,17.31230175,78.72514669,,,SingleFamilyResidence,,,https://www.magicbricks.com/propertyDetails/3-BHK-2200-Sq-ft-Residential-House-FOR-Sale-Hayathnagar-in-Hyderabad&id=4d423638313837393339
3 BHK Apartment for Sale in Attapur Hyderabad,,,Attapur,Hyderabad,17.3598337668558,78.4189300715583,,,Apartment,,,https://www.magicbricks.com/propertyDetails/3-BHK-1713-Sq-ft-Multistorey-Apartment-FOR-Sale-Attapur-in-Hyderabad&id=4d423734393831383131
3 BHK Apartment for Sale in Bachupally Hyderabad,,,Bachupally,Hyderabad,17.551816,78.3860695,,,Apartment,,,https://www.magicbricks.com/propertyDetails/3-BHK-1554-Sq-ft-Multistorey-Apartment-FOR-Sale-Bachupally-in-Hyderabad&id=4d423734393634393939
3 BHK Builder Floor for Sale in Madhapur Hyderabad,,,Madhapur,Hyderabad,17.4400265,78.3894655,,,Apartment,,,https://www.magicbricks.com/propertyDetails/3-BHK-1560-Sq-ft-Builder-Floor-Apartment-FOR-Sale-Madhapur-in-Hyderabad&id=4d423636323336343735
"2 BHK Apartment for Sale in Miyapur, NH 9 Hyderabad",,,Miyapur,Hyderabad,17.5210925,78.3442965,,,Apartment,,,https://www.magicbricks.com/propertyDetails/2-BHK-1244-Sq-ft-Multistorey-Apartment-FOR-Sale-Miyapur-in-Hyderabad&id=4d423734393733373739
2 BHK Apartment for Sale in Shyam Arcade Apartment Hyderabad,,,,Hyderabad,,,,,Apartment,,,https://www.magicbricks.com/propertyDetails/2-BHK-1360-Sq-ft-Multistorey-Apartment-FOR-Sale-in-Hyderabad&id=4d423631323334313839
"3 BHK Apartment for Sale in Turkayamjal, Hyderabad Hyderabad",,,,Hyderabad,,,,,Apartment,,,https://www.magicbricks.com/propertyDetails/3-BHK-2350-Sq-ft-Multistorey-Apartment-FOR-Sale-in-Hyderabad&id=4d423732393036333935
"3 BHK Apartment for Sale in Malakpet, NH 9 Hyderabad",,,Malakpet,Hyderabad,17.3722659,78.489792,,,Apartment,,,https://www.magicbricks.com/propertyDetails/3-BHK-1320-Sq-ft-Multistorey-Apartment-FOR-Sale-Malakpet-in-Hyderabad&id=4d423539313530323137
3 BHK Apartment for Sale in Parkwood towers Hyderabad,,,,Hyderabad,,,,,Apartment,,,https://www.magicbricks.com/propertyDetails/3-BHK-2000-Sq-ft-Multistorey-Apartment-FOR-Sale-in-Hyderabad&id=4d423637373535373633
3 BHK Builder Floor for Sale in Spr Gold Craft Hyderabad,,,,Hyderabad,,,,,Apartment,,,https://www.magicbricks.com/propertyDetails/3-BHK-1756-Sq-ft-Builder-Floor-Apartment-FOR-Sale-in-Hyderabad&id=4d423738343636333439
3 BHK Apartment for Sale in Adarsh Nagar Uppal Hyderabad,,,Adarsh Nagar Uppal,Hyderabad,17.4035087982535,78.5637248924034,,,Apartment,,,https://www.magicbricks.com/propertyDetails/3-BHK-2055-Sq-ft-Multistorey-Apartment-FOR-Sale-Adarsh-Nagar-Uppal-in-Hyderabad&id=4d423736373230383931
2 BHK  House for Sale in Jodimetla Hyderabad,,,,Hyderabad,17.428342819213867,78.65130615234375,,,SingleFamilyResidence,,,https://www.magicbricks.com/propertyDetails/2-BHK-200-Sq-yrd-Residential-House-FOR-Sale-Jodimetla-in-Hyderabad&id=4d423734343330353033
4 BHK  House for Sale in Turkayamjal Hyderabad,,,Turkayamjal,Hyderabad,17.2710100400246,78.5819729565636,,,SingleFamilyResidence,,,https://www.magicbricks.com/propertyDetails/4-BHK-150-Sq-yrd-Residential-House-FOR-Sale-Turkayamjal-in-Hyderabad&id=4d423730303838333435
"1 BHK  House for Sale in Uppal, NH 2 2 Hyderabad",,,Uppal,Hyderabad,17.4035087982535,78.5637248924034,,,SingleFamilyResidence,,,https://www.magicbricks.com/propertyDetails/1-BHK-90-Sq-yrd-Residential-House-FOR-Sale-Uppal-in-Hyderabad&id=4d423635313535383233
4 BHK  House for Sale in Beeramguda Ramachandrapuram Hyderabad,,,Beeramguda,Hyderabad,17.5183948207747,78.3016773620898,,,SingleFamilyResidence,,,https://www.magicbricks.com/propertyDetails/4-BHK-2380-Sq-ft-Residential-House-FOR-Sale-Beeramguda-in-Hyderabad&id=4d423631363738373831
2 BHK  House for Sale in Goutam nagar Hyderabad,,,,Hyderabad,,,,,SingleFamilyResidence,,,https://www.magicbricks.com/propertyDetails/2-BHK-206-Sq-yrd-Residential-House-FOR-Sale-in-Hyderabad&id=4d423739363038383731
2 BHK  House for Sale in Munganoor Hyderabad,,,Munganoor,Hyderabad,17.3018248,78.6110401,,,SingleFamilyResidence,,,https://www.magicbricks.com/propertyDetails/2-BHK-1177-Sq-ft-Residential-House-FOR-Sale-Munganoor-in-Hyderabad&id=4d423636313538393637
"3 BHK Apartment for Sale in JV Hills, Kondapur Hyderabad",,,JV Hills,Hyderabad,17.4723499,78.3528105,,,Apartment,,,https://www.magicbricks.com/propertyDetails/3-BHK-2150-Sq-ft-Multistorey-Apartment-FOR-Sale-JV-Hills-in-Hyderabad&id=4d423739313633353333
4 BHK  House for Sale in Meerpet Hyderabad,,,Meerpet,Hyderabad,17.3228248090479,78.5280052400058,,,SingleFamilyResidence,,,https://www.magicbricks.com/propertyDetails/4-BHK-2400-Sq-ft-Residential-House-FOR-Sale-Meerpet-in-Hyderabad&id=4d423636313438303931
2 BHK  House for Sale in Hayathnagar Khalsa Hyderabad,,,Hayathnagar,Hyderabad,17.33023,78.602495,,,SingleFamilyResidence,,,https://www.magicbricks.com/propertyDetails/2-BHK-250-Sq-yrd-Residential-House-FOR-Sale-Hayathnagar-in-Hyderabad&id=4d423636313339303039
3 BHK Apartment for Sale in Hyderabad,,,,Hyderabad,,,,,Apartment,,,https://www.magicbricks.com/propertyDetails/3-BHK-2000-Sq-ft-Multistorey-Apartment-FOR-Sale-in-Hyderabad&id=4d423734393737393237
"3 BHK Apartment for Sale in Miyapur, NH 9 Hyderabad",,,Miyapur,Hyderabad,17.5265125876332,78.3316496153237,,,Apartment,,,https://www.magicbricks.com/propertyDetails/3-BHK-1845-Sq-ft-Multistorey-Apartment-FOR-Sale-Miyapur-in-Hyderabad&id=4d423635363433383139
3 BHK  House for Sale in Gurram Guda Hyderabad,,,Gurram Guda,Hyderabad,17.296966552734375,78.56890106201172,,,SingleFamilyResidence,,,https://www.magicbricks.com/propertyDetails/3-BHK-2400-Sq-ft-Residential-House-FOR-Sale-Gurram-Guda-in-Hyderabad&id=4d423634313935383933
2 BHK Apartment for Sale in Rajendranagar Mandal Hyderabad,,,Rajendranagar Mandal,Hyderabad,17.308096,78.39665,,,Apartment,,,https://www.magicbricks.com/propertyDetails/2-BHK-1179-Sq-ft-Multistorey-Apartment-FOR-Sale-Rajendra-Nagar-in-Hyderabad&id=4d423830333632323235
"3 BHK Apartment for Sale in Gundlapochampally, Outer Ring Road Hyderabad",,,Gundlapochampally,Hyderabad,17.5889091,78.4135257,,,Apartment,,,https://www.magicbricks.com/propertyDetails/3-BHK-1525-Sq-ft-Multistorey-Apartment-FOR-Sale-Gundlapochampally-in-Hyderabad&id=4d423830333039343439
"2 BHK Apartment for Sale in Alkapur Township, Manikonda, Outer Ring Road Hyderabad",,,Alkapur Township,Hyderabad,17.3836594,78.3219475,,,Apartment,,,https://www.magicbricks.com/propertyDetails/2-BHK-1375-Sq-ft-Multistorey-Apartment-FOR-Sale-Alkapur-Township-in-Hyderabad&id=4d423634313738343535
4 BHK  House for Sale in Badangpet Hyderabad,,,Badangpet,Hyderabad,17.3021345311744,78.5280636394728,,,SingleFamilyResidence,,,https://www.magicbricks.com/propertyDetails/4-BHK-160-Sq-ft-Residential-House-FOR-Sale-Badangpet-in-Hyderabad&id=4d423830303033363131
"4 BHK Villa for Sale in Ghatkesar, NH 2 2 Hyderabad",,,Ghatkesar,Hyderabad,17.4513233430069,78.6811762527671,,,SingleFamilyResidence,,,https://www.magicbricks.com/propertyDetails/4-BHK-1450-Sq-ft-Villa-FOR-Sale-Ghatkesar-in-Hyderabad&id=4d423730343830313735
2 BHK Apartment for Sale in Bachupally Hyderabad,,,Bachupally,Hyderabad,17.551816940307617,78.38607025146484,,,Apartment,,,https://www.magicbricks.com/propertyDetails/2-BHK-1388-Sq-ft-Multistorey-Apartment-FOR-Sale-Bachupally-in-Hyderabad&id=4d423830343732323631
"2 BHK  House for Sale in Malkapur, NH 9 Hyderabad",,,Malkapur,Hyderabad,17.2740540341488,78.7970640544023,,,SingleFamilyResidence,,,https://www.magicbricks.com/propertyDetails/2-BHK-1119-Sq-ft-Residential-House-FOR-Sale-Malkapur-in-Hyderabad&id=4d423738343431383535
3 BHK  House for Sale in Gayatri Nagar Peerzadiguda Hyderabad,,,Gayatri Nagar Peerzadiguda,Hyderabad,17.397174835205078,78.5966567993164,,,SingleFamilyResidence,,,https://www.magicbricks.com/propertyDetails/3-BHK-1250-Sq-ft-Residential-House-FOR-Sale-Gayatri-Nagar-Peerzadiguda-in-Hyderabad&id=4d423639373036393731
3 BHK Apartment for Sale in Nanakaramguda Hyderabad,,,Nanakram Guda,Hyderabad,17.412543,78.337875,,,Apartment,,,https://www.magicbricks.com/propertyDetails/3-BHK-1560-Sq-ft-Multistorey-Apartment-FOR-Sale-Nanakram-Guda-in-Hyderabad&id=4d423637373233303037
"6 BHK Apartment for Sale in Banjara Hills, NH 9 Hyderabad",,,Banjara Hills,Hyderabad,17.4058138,78.4439211,,,Apartment,,,https://www.magicbricks.com/propertyDetails/6-BHK-3000-Sq-ft-Multistorey-Apartment-FOR-Sale-Banjara-Hills-in-Hyderabad&id=4d423634393632383035
3 BHK Villa for Sale in Dammaiguda Hyderabad,,,Dammaiguda,Hyderabad,17.49768,78.59616,,,SingleFamilyResidence,,,https://www.magicbricks.com/propertyDetails/3-BHK-127-Sq-yrd-Villa-FOR-Sale-Dammaiguda-in-Hyderabad&id=4d423635323331383333
"6 BHK  House for Sale in Falaknuma, Falaknuma Road Hyderabad",,,Falaknuma,Hyderabad,17.39716339111328,78.59651184082031,,,SingleFamilyResidence,,,https://www.magicbricks.com/propertyDetails/6-BHK-1600-Sq-ft-Residential-House-FOR-Sale-Falaknuma-in-Hyderabad&id=4d423635313437343133
3 BHK Apartment for Sale in Vijaya Nagar Colony Kukatpally Hyderabad,,,Vijaya Nagar Colony,Hyderabad,17.41145133972168,78.50635528564453,,,Apartment,,,https://www.magicbricks.com/propertyDetails/3-BHK-1500-Sq-ft-Multistorey-Apartment-FOR-Sale-Vijaya-Nagar-Colony-in-Hyderabad&id=4d423635323430363235
"2 BHK Apartment for Sale in Hafeezpet, NH 9 Hyderabad",,,Hafeezpet,Hyderabad,17.485805,78.352671,,,Apartment,,,https://www.magicbricks.com/propertyDetails/2-BHK-1250-Sq-ft-Multistorey-Apartment-FOR-Sale-Hafeezpet-in-Hyderabad&id=4d423739383939353139
3 BHK Apartment for Sale in Kompally Hyderabad,,,Kompally,Hyderabad,17.52262456,78.4899126,,,Apartment,,,https://www.magicbricks.com/propertyDetails/3-BHK-1820-Sq-ft-Multistorey-Apartment-FOR-Sale-Kompally-in-Hyderabad&id=4d423733383936323537
2 BHK Apartment for Sale in Kondapur Hyderabad,,,Kondapur,Hyderabad,17.46101,78.362506,,,Apartment,,,https://www.magicbricks.com/propertyDetails/2-BHK-1270-Sq-ft-Multistorey-Apartment-FOR-Sale-Kondapur-in-Hyderabad&id=4d423637333534383133
4 BHK  House for Sale in PMR Enclave Nagaram Hyderabad,,,,Hyderabad,,,,,SingleFamilyResidence,,,https://www.magicbricks.com/propertyDetails/4-BHK-2800-Sq-ft-Residential-House-FOR-Sale-in-Hyderabad&id=4d423638383336333533
4 BHK  House for Sale in Kundanpally Hyderabad,,,,Hyderabad,17.496297,78.625137,,,SingleFamilyResidence,,,https://www.magicbricks.com/propertyDetails/4-BHK-2400-Sq-ft-Residential-House-FOR-Sale-Kundanpally-in-Hyderabad&id=4d423733383435303937
3 BHK Apartment for Sale in RAIN FOREST APARTMENTS Hyderabad,,,,Hyderabad,,,,,Apartment,,,https://www.magicbricks.com/propertyDetails/3-BHK-1571-Sq-ft-Multistorey-Apartment-FOR-Sale-in-Hyderabad&id=4d423738343032323233
"6 BHK  House for Sale in Peerzadiguda, NH 2 2 Hyderabad",,,Peerzadiguda,Hyderabad,17.397180557250977,78.59650421142578,,,SingleFamilyResidence,,,https://www.magicbricks.com/propertyDetails/6-BHK-140-Sq-yrd-Residential-House-FOR-Sale-Peerzadiguda-in-Hyderabad&id=4d423639313738353235
2 BHK Apartment for Sale in Chikkadpally Hyderabad,,,Chikkadpally,Hyderabad,17.403606414794922,78.49845886230469,,,Apartment,,,https://www.magicbricks.com/propertyDetails/2-BHK-1200-Sq-ft-Multistorey-Apartment-FOR-Sale-Chikkadpally-in-Hyderabad&id=4d423632393733363839
3 BHK Apartment for Sale in Moti Nagar Erragadda Hyderabad,,,Moti Nagar,Hyderabad,17.456138,78.42833931,,,Apartment,,,https://www.magicbricks.com/propertyDetails/3-BHK-1300-Sq-ft-Multistorey-Apartment-FOR-Sale-Moti-Nagar-in-Hyderabad&id=4d423733393033383737
3 BHK  House for Sale in Gajwel Hyderabad,,,,Hyderabad,17.845159,78.681832,,,SingleFamilyResidence,,,https://www.magicbricks.com/propertyDetails/3-BHK-2322-Sq-ft-Residential-House-FOR-Sale-Gajwel-in-Hyderabad&id=4d423639303939373031
2 BHK Apartment for Sale in Serilingampalle M Hyderabad,,,Serilingampally,Hyderabad,17.4743879,78.319997,,,Apartment,,,https://www.magicbricks.com/propertyDetails/2-BHK-1355-Sq-ft-Multistorey-Apartment-FOR-Sale-Serilingampally-in-Hyderabad&id=4d423338323535333339
3 BHK Apartment for Sale in Chanda Nagar Hyderabad,,,,Hyderabad,17.495741,78.325436,,,Apartment,,,https://www.magicbricks.com/propertyDetails/3-BHK-2075-Sq-ft-Multistorey-Apartment-FOR-Sale-Chanda-Nagar-in-Hyderabad&id=4d423739303931313639
2 BHK  House for Sale in Nagaram Main Road Hyderabad,,,Nagaram Main Road,Hyderabad,17.49041555,78.60000411,,,SingleFamilyResidence,,,https://www.magicbricks.com/propertyDetails/2-BHK-1350-Sq-ft-Residential-House-FOR-Sale-Nagaram-Main-Road-in-Hyderabad&id=4d423731393030383733
2 BHK  House for Sale in Almasguda Hyderabad,,,Almasguda,Hyderabad,17.2978966,78.546576,,,SingleFamilyResidence,,,https://www.magicbricks.com/propertyDetails/2-BHK-1500-Sq-ft-Residential-House-FOR-Sale-Almasguda-in-Hyderabad&id=4d423632323039333039
3 BHK Apartment for Sale in CSK SKYSCAPE Hyderabad,,,,Hyderabad,,,,,Apartment,,,https://www.magicbricks.com/propertyDetails/3-BHK-1955-Sq-ft-Multistorey-Apartment-FOR-Sale-in-Hyderabad&id=4d423737303838393931
"3 BHK Apartment for Sale in Patrika Nagar, Hitech City Hyderabad",,,Patrika Nagar,Hyderabad,17.447917,78.376176,,,Apartment,,,https://www.magicbricks.com/propertyDetails/3-BHK-1510-Sq-ft-Multistorey-Apartment-FOR-Sale-Patrika-Nagar-in-Hyderabad&id=4d423635353031343837
"3 BHK Apartment for Sale in Banjara Hills, NH 9 Hyderabad",,,Banjara Hills,Hyderabad,17.4158949,78.4357593,,,Apartment,,,https://www.magicbricks.com/propertyDetails/3-BHK-1830-Sq-ft-Multistorey-Apartment-FOR-Sale-Banjara-Hills-in-Hyderabad&id=4d423638333335323733
3 BHK  House for Sale in Ameenpur Hyderabad,,,,Hyderabad,17.5265125876332,78.3316496153237,,,SingleFamilyResidence,,,https://www.magicbricks.com/propertyDetails/3-BHK-1880-Sq-ft-Residential-House-FOR-Sale-Ameenpur-in-Hyderabad&id=4d423631383135373137
"2 BHK Apartment for Sale in Sanath Nagar, NH 9 Hyderabad",,,Sanath Nagar,Hyderabad,17.4553875,78.4489977,,,Apartment,,,https://www.magicbricks.com/propertyDetails/2-BHK-1377-Sq-ft-Multistorey-Apartment-FOR-Sale-Sanath-Nagar-in-Hyderabad&id=4d423735393636353331
4 BHK  House for Sale in Prem Nagar Erragadda Hyderabad,,,Prem Nagar Erragadda,Hyderabad,17.457359313964844,78.4320068359375,,,SingleFamilyResidence,,,https://www.magicbricks.com/propertyDetails/4-BHK-96-Sq-yrd-Residential-House-FOR-Sale-Prem-nagar-Erragadda-in-Hyderabad&id=4d423737303132353739
3 BHK Apartment for Sale in Kompally Hyderabad,,,Kompally,Hyderabad,17.59806664121737,78.46760103068259,,,Apartment,,,https://www.magicbricks.com/propertyDetails/3-BHK-1885-Sq-ft-Multistorey-Apartment-FOR-Sale-Kompally-in-Hyderabad&id=4d423731303237343135
3 BHK Apartment for Sale in Madeenaguda Hyderabad,,,Madinaguda,Hyderabad,17.492969,78.343077,,,Apartment,,,https://www.magicbricks.com/propertyDetails/3-BHK-1630-Sq-ft-Multistorey-Apartment-FOR-Sale-Madinaguda-in-Hyderabad&id=4d423735393535303737
"3 BHK Apartment for Sale in Patighanpur, Outer Ring Road Hyderabad",,,Patighanpur,Hyderabad,17.5071923,78.2472294,,,Apartment,,,https://www.magicbricks.com/propertyDetails/3-BHK-2042-Sq-ft-Multistorey-Apartment-FOR-Sale-Patighanpur-in-Hyderabad&id=4d423830353639343435
3 BHK Apartment for Sale in Gachibowli Hyderabad,,,Gachibowli,Hyderabad,17.443563,78.3397746,,,Apartment,,,https://www.magicbricks.com/propertyDetails/3-BHK-1497-Sq-ft-Multistorey-Apartment-FOR-Sale-Gachibowli-in-Hyderabad&id=4d423731383530393737
3 BHK Apartment for Sale in Madeenaguda Hyderabad,,,Madinaguda,Hyderabad,17.492969,78.343077,,,Apartment,,,https://www.magicbricks.com/propertyDetails/3-BHK-1630-Sq-ft-Multistorey-Apartment-FOR-Sale-Madinaguda-in-Hyderabad&id=4d423735393535303737
3 BHK  House for Sale in balaji homes Hyderabad,,,,Hyderabad,,,,,SingleFamilyResidence,,,https://www.magicbricks.com/propertyDetails/3-BHK-1600-Sq-ft-Residential-House-FOR-Sale-in-Hyderabad&id=4d423731333334373837
"7 BHK Builder Floor for Sale in Bollaram, Outer Ring Road Hyderabad",,,Bollaram,Hyderabad,17.457666397094727,78.45243072509766,,,Apartment,,,https://www.magicbricks.com/propertyDetails/7-BHK-1100-Sq-ft-Builder-Floor-Apartment-FOR-Sale-Bollaram-in-Hyderabad&id=4d423532323730393933
3 BHK Apartment for Sale in AS Rao Nagar Hyderabad,,,AS Rao Nagar,Hyderabad,17.47571366549,78.5520563041659,,,Apartment,,,https://www.magicbricks.com/propertyDetails/3-BHK-1800-Sq-ft-Multistorey-Apartment-FOR-Sale-AS-Rao-Nagar-in-Hyderabad&id=4d423636393433383337
"3 BHK Apartment for Sale in Gundlapochampally, Outer Ring Road Hyderabad",,,Gundlapochampally,Hyderabad,17.5889091,78.4135257,,,Apartment,,,https://www.magicbricks.com/propertyDetails/3-BHK-1066-Sq-ft-Multistorey-Apartment-FOR-Sale-Gundlapochampally-in-Hyderabad&id=4d423637303933383135
"3 BHK Apartment for Sale in Simhapuri Colony, Bowrampet Hyderabad",,,,Hyderabad,,,,,Apartment,,,https://www.magicbricks.com/propertyDetails/3-BHK-2084-Sq-ft-Multistorey-Apartment-FOR-Sale-in-Hyderabad&id=4d423734383732373439
3 BHK Villa for Sale in Road 6 Hyderabad,,,,Hyderabad,,,,,SingleFamilyResidence,,,https://www.magicbricks.com/propertyDetails/3-BHK-143-Sq-yrd-Villa-FOR-Sale-in-Hyderabad&id=4d423734393330393631
3 BHK Apartment for Sale in Hyderabad,,,,Hyderabad,,,,,Apartment,,,https://www.magicbricks.com/propertyDetails/3-BHK-1500-Sq-ft-Multistorey-Apartment-FOR-Sale-in-Hyderabad&id=4d423734393236313837
3 BHK Apartment for Sale in Neelam pride apartments Hyderabad,,,,Hyderabad,,,,,Apartment,,,https://www.magicbricks.com/propertyDetails/3-BHK-1650-Sq-ft-Multistorey-Apartment-FOR-Sale-in-Hyderabad&id=4d423739343732393937
3 BHK  House for Sale in Dammaiguda Hyderabad,,,Dammaiguda,Hyderabad,17.5012465,78.5997209,,,SingleFamilyResidence,,,https://www.magicbricks.com/propertyDetails/3-BHK-1700-Sq-ft-Residential-House-FOR-Sale-Dammaiguda-in-Hyderabad&id=4d423734393038333035
"4 BHK Apartment for Sale in Dundigal, Outer Ring Road Hyderabad",,,Dundigal,Hyderabad,17.59155564157442,78.40143901763011,,,Apartment,,,https://www.magicbricks.com/propertyDetails/4-BHK-2165-Sq-ft-Multistorey-Apartment-FOR-Sale-Dundigal-in-Hyderabad&id=4d423737303836373039
3 BHK Villa for Sale in MallikarjunaNagar Beeramguda Kaman Hyderabad,,,,Hyderabad,,,,,SingleFamilyResidence,,,https://www.magicbricks.com/propertyDetails/3-BHK-1500-Sq-ft-Villa-FOR-Sale-in-Hyderabad&id=4d423734383939353235
4 BHK Villa for Sale in nitya enclave airpot cargo road Hyderabad,,,,Hyderabad,,,,,SingleFamilyResidence,,,https://www.magicbricks.com/propertyDetails/4-BHK-1800-Sq-ft-Villa-FOR-Sale-in-Hyderabad&id=4d423730393235303139
"4 BHK  House for Sale in Peerzadiguda, NH 2 2 Hyderabad",,,Peerzadiguda,Hyderabad,17.4027678988506,78.6284890189194,,,SingleFamilyResidence,,,https://www.magicbricks.com/propertyDetails/4-BHK-2200-Sq-ft-Residential-House-FOR-Sale-Peerzadiguda-in-Hyderabad&id=4d423636303635343339
2 BHK Apartment for Sale in Cherlapalli Hyderabad,,,Cherlapalli,Hyderabad,17.4637434,78.594704,,,Apartment,,,https://www.magicbricks.com/propertyDetails/2-BHK-2500-Sq-ft-Multistorey-Apartment-FOR-Sale-Cherlapalli-in-Hyderabad&id=4d423636303434373535
"2 BHK  House for Sale in Indresham, Bachuguda Hyderabad",,,Indresham,Hyderabad,17.569432,78.2535764,,,SingleFamilyResidence,,,https://www.magicbricks.com/propertyDetails/2-BHK-32-Sq-ft-Residential-House-FOR-Sale-Indresham-in-Hyderabad&id=4d423739343738363439
2 BHK  House for Sale in Almasguda Hyderabad,,,Almasguda,Hyderabad,17.3121343811598,78.5395770293615,,,SingleFamilyResidence,,,https://www.magicbricks.com/propertyDetails/2-BHK-2900-Sq-ft-Residential-House-FOR-Sale-Almasguda-in-Hyderabad&id=4d423539383239313333
3 BHK  House for Sale in Medchal Hyderabad,,,Medchal,Hyderabad,17.631427764892578,78.48319244384766,,,SingleFamilyResidence,,,https://www.magicbricks.com/propertyDetails/3-BHK-2700-Sq-ft-Residential-House-FOR-Sale-Medchal-in-Hyderabad&id=4d423738343437343935
2 BHK  House for Sale in Suraram Hyderabad,,,Suraram,Hyderabad,17.5436156,78.438777,,,SingleFamilyResidence,,,https://www.magicbricks.com/propertyDetails/2-BHK-1600-Sq-ft-Residential-House-FOR-Sale-Suraram-in-Hyderabad&id=4d423738343531373537
2 BHK  House for Sale in Sangeet Nagar Somajiguda Hyderabad,,,Sangeet Nagar,Hyderabad,17.484575271606445,78.42049407958984,,,SingleFamilyResidence,,,https://www.magicbricks.com/propertyDetails/2-BHK-1500-Sq-ft-Residential-House-FOR-Sale-Sangeet-Nagar-in-Hyderabad&id=4d423634363133313031
"2 BHK Apartment for Sale in Hafeezpet, NH 9 Hyderabad",,,Hafeezpet,Hyderabad,17.447917,78.376176,,,Apartment,,,https://www.magicbricks.com/propertyDetails/2-BHK-1271-Sq-ft-Multistorey-Apartment-FOR-Sale-Hafeezpet-in-Hyderabad&id=4d423536313631353531
"3 BHK Apartment for Sale in Moosapet, NH 9 Hyderabad",,,Moosapet,Hyderabad,17.466592691064132,78.41164038258505,,,Apartment,,,https://www.magicbricks.com/propertyDetails/3-BHK-1480-Sq-ft-Multistorey-Apartment-FOR-Sale-Moosapet-in-Hyderabad&id=4d423731343331343035
"4 BHK  House for Sale in Aliabad, Falaknuma Road Hyderabad",,,Aliabad,Hyderabad,17.342872619628906,78.47356414794922,,,SingleFamilyResidence,,,https://www.magicbricks.com/propertyDetails/4-BHK-122-Sq-yrd-Residential-House-FOR-Sale-Aliabad-in-Hyderabad&id=4d423535363039373637
"6 BHK  House for Sale in Peerzadiguda, NH 2 2 Hyderabad",,,Peerzadiguda,Hyderabad,17.4027678988506,78.6284890189194,,,SingleFamilyResidence,,,https://www.magicbricks.com/propertyDetails/6-BHK-3300-Sq-ft-Residential-House-FOR-Sale-Peerzadiguda-in-Hyderabad&id=4d423339333234343139
"2 BHK  House for Sale in Anjaneyanagar Colony, Boduppal Hyderabad",,,Anjaneyanagar Colony,Hyderabad,17.408222198486328,78.58012390136719,,,SingleFamilyResidence,,,https://www.magicbricks.com/propertyDetails/2-BHK-100-Sq-ft-Residential-House-FOR-Sale-Anjaneyanagar-Colony-in-Hyderabad&id=4d423633383534343937
2 BHK Apartment for Sale in Bachupally Hyderabad,,,Bachupally,Hyderabad,17.54284124206839,78.3883531134947,,,Apartment,,,https://www.magicbricks.com/propertyDetails/2-BHK-1425-Sq-ft-Multistorey-Apartment-FOR-Sale-Bachupally-in-Hyderabad&id=4d423830343731383537
2 BHK  House for Sale in Parvathapur Hyderabad,,,Parvathapur,Hyderabad,17.3969813259549,78.6157122475114,,,SingleFamilyResidence,,,https://www.magicbricks.com/propertyDetails/2-BHK-5000-Sq-ft-Residential-House-FOR-Sale-Parvathapur-in-Hyderabad&id=4d423634383230313037
"3 BHK Apartment for Sale in Gundlapochampally, Outer Ring Road Hyderabad",,,Gundlapochampally,Hyderabad,17.5889091,78.4135257,,,Apartment,,,https://www.magicbricks.com/propertyDetails/3-BHK-1525-Sq-ft-Multistorey-Apartment-FOR-Sale-Gundlapochampally-in-Hyderabad&id=4d423639383332373939
2 BHK  House for Sale in Old Neredmet Road Hyderabad,,,Old Neredmet Road,Hyderabad,17.47113037109375,78.53905487060547,,,SingleFamilyResidence,,,https://www.magicbricks.com/propertyDetails/2-BHK-116-Sq-yrd-Residential-House-FOR-Sale-Old-Neredmet-Road-in-Hyderabad&id=4d423738303938313833
3 BHK Apartment for Sale in Mokila Hyderabad,,,Mokila,Hyderabad,17.47865918454611,78.23252334417836,,,Apartment,,,https://www.magicbricks.com/propertyDetails/3-BHK-1665-Sq-ft-Multistorey-Apartment-FOR-Sale-Mokila-in-Hyderabad&id=4d423830343838303337
3 BHK  House for Sale in Chengicherla Hyderabad,,,,Hyderabad,17.4399815508247,78.6002888999508,,,SingleFamilyResidence,,,https://www.magicbricks.com/propertyDetails/3-BHK-200-Sq-yrd-Residential-House-FOR-Sale-Chengicherla-in-Hyderabad&id=4d423730303238373737
2 BHK Apartment for Sale in Prasanth Nagar Miyapur Hyderabad,,,Prasanth Nagar,Hyderabad,17.503856658935547,78.35360717773438,,,Apartment,,,https://www.magicbricks.com/propertyDetails/2-BHK-1200-Sq-ft-Multistorey-Apartment-FOR-Sale-Prasanth-Nagar-in-Hyderabad&id=4d423739313636303437
"2 BHK Apartment for Sale in Uppal, NH 2 2 Hyderabad",,,Uppal,Hyderabad,17.4035481,78.5636225,,,Apartment,,,https://www.magicbricks.com/propertyDetails/2-BHK-1330-Sq-ft-Multistorey-Apartment-FOR-Sale-Uppal-in-Hyderabad&id=4d423730303133393335
6 BHK  House for Sale in Borabanda Hyderabad,,,Borabanda,Hyderabad,17.4600828507686,78.4094582822113,,,SingleFamilyResidence,,,https://www.magicbricks.com/propertyDetails/6-BHK-837-Sq-ft-Residential-House-FOR-Sale-Borabanda-in-Hyderabad&id=4d423635313137343431
"3 BHK Apartment for Sale in Hyder Shah Kote, Chevella Road Hyderabad",,,Hyder Shah Kote,Hyderabad,17.3627631,78.3898231,,,Apartment,,,https://www.magicbricks.com/propertyDetails/3-BHK-1950-Sq-ft-Multistorey-Apartment-FOR-Sale-Hyder-Shah-Kote-in-Hyderabad&id=4d423639303631383131
5 BHK  House for Sale in Manikonda Road Hyderabad,,,Manikonda Road,Hyderabad,17.40785808,78.38077273,,,SingleFamilyResidence,,,https://www.magicbricks.com/propertyDetails/5-BHK-125-Sq-yrd-Residential-House-FOR-Sale-Manikonda-Road-in-Hyderabad&id=4d423733383635333233
3 BHK  House for Sale in Dammaiguda Hyderabad,,,Dammaiguda,Hyderabad,17.5012465,78.5997209,,,SingleFamilyResidence,,,https://www.magicbricks.com/propertyDetails/3-BHK-2300-Sq-ft-Residential-House-FOR-Sale-Dammaiguda-in-Hyderabad&id=4d423639303631343539
3 BHK Apartment for Sale in Bandlaguda Jagir Hyderabad,,,Bandlaguda Jagir,Hyderabad,17.35645666,78.38391264,,,Apartment,,,https://www.magicbricks.com/propertyDetails/3-BHK-1350-Sq-ft-Multistorey-Apartment-FOR-Sale-Bandlaguda-Jagir-in-Hyderabad&id=4d423639303537333033
2 BHK Apartment for Sale in Osman Nagar Hyderabad,,,Osman Nagar,Hyderabad,17.4417842468164,78.2803618440924,,,Apartment,,,https://www.magicbricks.com/propertyDetails/2-BHK-1420-Sq-ft-Multistorey-Apartment-FOR-Sale-Osman-Nagar-in-Hyderabad&id=4d423830343236333339
3 BHK  House for Sale in Turkayamjal Hyderabad,,,Turkayamjal,Hyderabad,17.269470971736396,78.59182206793973,,,SingleFamilyResidence,,,https://www.magicbricks.com/propertyDetails/3-BHK-200-Sq-yrd-Residential-House-FOR-Sale-Turkayamjal-in-Hyderabad&id=4d423637323539353733
"2 BHK Apartment for Sale in Kokapet, Outer Ring Road Hyderabad",,,Kokapet,Hyderabad,17.3969314,78.335221,,,Apartment,,,https://www.magicbricks.com/propertyDetails/2-BHK-1270-Sq-ft-Multistorey-Apartment-FOR-Sale-Kokapet-in-Hyderabad&id=4d423637343132353535
3 BHK Apartment for Sale in Pocharam Rangareddy Hyderabad,,,Pocharam Rangareddy,Hyderabad,17.44374,78.65132,,,Apartment,,,https://www.magicbricks.com/propertyDetails/3-BHK-1475-Sq-ft-Multistorey-Apartment-FOR-Sale-Pocharam-Rangareddy-in-Hyderabad&id=4d423733383138383831
3 BHK Apartment for Sale in Shamshabad Hyderabad,,,Shamshabad,Hyderabad,17.29314,78.41461,,,Apartment,,,https://www.magicbricks.com/propertyDetails/3-BHK-1400-Sq-ft-Multistorey-Apartment-FOR-Sale-Shamshabad-in-Hyderabad&id=4d423639303435363033
"2 BHK  House for Sale in Mansoorabad, NH 9 Hyderabad",,,Mansoorabad,Hyderabad,17.34992747,78.56232071,,,SingleFamilyResidence,,,https://www.magicbricks.com/propertyDetails/2-BHK-115-Sq-yrd-Residential-House-FOR-Sale-Mansoorabad-in-Hyderabad&id=4d423830343537303135
2 BHK Apartment for Sale in Bachupally Hyderabad,,,Bachupally,Hyderabad,17.551816,78.3860695,,,Apartment,,,https://www.magicbricks.com/propertyDetails/2-BHK-1110-Sq-ft-Multistorey-Apartment-FOR-Sale-Bachupally-in-Hyderabad&id=4d423733383331303431
3 BHK Apartment for Sale in Mallapur Hyderabad,,,Mallapur,Hyderabad,17.4421468084069,78.580188727494,,,Apartment,,,https://www.magicbricks.com/propertyDetails/3-BHK-1625-Sq-ft-Multistorey-Apartment-FOR-Sale-Mallapur-in-Hyderabad&id=4d423733383239363831
"1 BHK Apartment for Sale in Punjagutta, NH 9 Hyderabad",,,Punjagutta,Hyderabad,17.4261101,78.451451,,,Apartment,,,https://www.magicbricks.com/propertyDetails/1-BHK-1220-Sq-ft-Multistorey-Apartment-FOR-Sale-Punjagutta-in-Hyderabad&id=4d423731383930303039
3 BHK Apartment for Sale in Kompally Hyderabad,,,Kompally,Hyderabad,17.54259490966797,78.48229217529297,,,Apartment,,,https://www.magicbricks.com/propertyDetails/3-BHK-1770-Sq-ft-Multistorey-Apartment-FOR-Sale-Kompally-in-Hyderabad&id=4d423731383436343133
2 BHK Apartment for Sale in Manikonda Jagir Hyderabad,,,Manikonda,Hyderabad,17.406845,78.3726835,,,Apartment,,,https://www.magicbricks.com/propertyDetails/2-BHK-1335-Sq-ft-Multistorey-Apartment-FOR-Sale-Manikonda-in-Hyderabad&id=4d423830313434393537
3 BHK Villa for Sale in Gandamguda Hyderabad,,,Gandhamguda,Hyderabad,17.364944458007812,78.3805923461914,,,SingleFamilyResidence,,,https://www.magicbricks.com/propertyDetails/3-BHK-2500-Sq-ft-Villa-FOR-Sale-Gandhamguda-in-Hyderabad&id=4d423633343636303335
3 BHK Apartment for Sale in Kompally Hyderabad,,,Kompally,Hyderabad,17.538052,78.4839479,,,Apartment,,,https://www.magicbricks.com/propertyDetails/3-BHK-1380-Sq-ft-Multistorey-Apartment-FOR-Sale-Kompally-in-Hyderabad&id=4d423731363532303339
3 BHK  House for Sale in PV Narasimha Rao Expressway Hyderabad,,,PV Narasimha Rao Expressway,Hyderabad,17.3605507,78.4274809,,,SingleFamilyResidence,,,https://www.magicbricks.com/propertyDetails/3-BHK-180-Sq-yrd-Residential-House-FOR-Sale-PV-Narasimha-Rao-Expressway-in-Hyderabad&id=4d423637303730313935
3 BHK Apartment for Sale in Madeenaguda Hyderabad,,,Madinaguda,Hyderabad,17.4924001,78.3417291,,,Apartment,,,https://www.magicbricks.com/propertyDetails/3-BHK-1575-Sq-ft-Multistorey-Apartment-FOR-Sale-Madinaguda-in-Hyderabad&id=4d423830343634393233
3 BHK Apartment for Sale in Puppalguda Hyderabad,,,Puppalaguda,Hyderabad,17.40754251,78.36320873,,,Apartment,,,https://www.magicbricks.com/propertyDetails/3-BHK-1500-Sq-ft-Multistorey-Apartment-FOR-Sale-Puppalaguda-in-Hyderabad&id=4d423739333834353431
"3 BHK  House for Sale in Brundavan meadows, Vanasthalipuram Hyderabad",,,,Hyderabad,,,,,SingleFamilyResidence,,,https://www.magicbricks.com/propertyDetails/3-BHK-167-Sq-yrd-Residential-House-FOR-Sale-in-Hyderabad&id=4d423735393439343933
3 BHK Apartment for Sale in Moti Nagar Erragadda Hyderabad,,,Moti Nagar,Hyderabad,17.4464575,78.4185155,,,Apartment,,,https://www.magicbricks.com/propertyDetails/3-BHK-1478-Sq-ft-Multistorey-Apartment-FOR-Sale-Moti-Nagar-in-Hyderabad&id=4d423732383536313631
2 BHK  House for Sale in Medipally Hyderabad,,,Medipally,Hyderabad,17.4068697055425,78.6001011781133,,,SingleFamilyResidence,,,https://www.magicbricks.com/propertyDetails/2-BHK-2000-Sq-ft-Residential-House-FOR-Sale-Medipally-in-Hyderabad&id=4d423732383531323137
2 BHK Apartment for Sale in Madhavaram Nagar Colony Hyderabad,,,Madhavaram Nagar Colony,Hyderabad,17.492736,78.401235,,,Apartment,,,https://www.magicbricks.com/propertyDetails/2-BHK-1180-Sq-ft-Multistorey-Apartment-FOR-Sale-Madhavaram-Nagar-Colony-in-Hyderabad&id=4d423830353034373637
3 BHK Apartment for Sale in Mallapur Hyderabad,,,Mallapur,Hyderabad,17.449544,78.573501,,,Apartment,,,https://www.magicbricks.com/propertyDetails/3-BHK-1360-Sq-ft-Multistorey-Apartment-FOR-Sale-Mallapur-in-Hyderabad&id=4d423635353636313531
3 BHK Apartment for Sale in Mahalneknapur Hyderabad,,,Mahalneknapur,Hyderabad,17.4125038126094,78.3687404301165,,,Apartment,,,https://www.magicbricks.com/propertyDetails/3-BHK-1675-Sq-ft-Multistorey-Apartment-FOR-Sale-Mahalneknapur-in-Hyderabad&id=4d423635353339363135
"3 BHK Apartment for Sale in Satyam Enclave, Komapally, NH 7 Hyderabad",,,Satyam Enclave,Hyderabad,17.526880264282227,78.4800033569336,,,Apartment,,,https://www.magicbricks.com/propertyDetails/3-BHK-1754-Sq-ft-Multistorey-Apartment-FOR-Sale-Satyam-Enclave-in-Hyderabad&id=4d423732373839343931
3 BHK Apartment for Sale in Kompally Hyderabad,,,Kompally,Hyderabad,17.5425945515091,78.4822910638784,,,Apartment,,,https://www.magicbricks.com/propertyDetails/3-BHK-1800-Sq-ft-Multistorey-Apartment-FOR-Sale-Kompally-in-Hyderabad&id=4d423731313032313633
"3 BHK Apartment for Sale in Kollur, Outer Ring Road Hyderabad",,,Kollur,Hyderabad,17.4344695,78.2425939,,,Apartment,,,https://www.magicbricks.com/propertyDetails/3-BHK-2075-Sq-ft-Multistorey-Apartment-FOR-Sale-Kollur-in-Hyderabad&id=4d423830363538343931
2 BHK Apartment for Sale in Prasanti nagar new nallakunta Hyderabad,,,,Hyderabad,,,,,Apartment,,,https://www.magicbricks.com/propertyDetails/2-BHK-1150-Sq-ft-Multistorey-Apartment-FOR-Sale-in-Hyderabad&id=4d423830353235333131
"3 BHK Apartment for Sale in Mohan Nagar Kothapet, Hyderabad Hyderabad",,,,Hyderabad,,,,,Apartment,,,https://www.magicbricks.com/propertyDetails/3-BHK-2100-Sq-ft-Multistorey-Apartment-FOR-Sale-in-Hyderabad&id=4d423736303237313737
2 BHK Apartment for Sale in Moti Nagar Erragadda Hyderabad,,,Moti Nagar,Hyderabad,17.4464575,78.4185155,,,Apartment,,,https://www.magicbricks.com/propertyDetails/2-BHK-1177-Sq-ft-Multistorey-Apartment-FOR-Sale-Moti-Nagar-in-Hyderabad&id=4d423830353233303537
3 BHK  House for Sale in Bandlaguda Jagir Hyderabad,,,Bandlaguda Jagir,Hyderabad,17.3571086350415,78.3948731204593,,,SingleFamilyResidence,,,https://www.magicbricks.com/propertyDetails/3-BHK-1800-Sq-ft-Residential-House-FOR-Sale-Bandlaguda-Jagir-in-Hyderabad&id=4d423737303138393937
2 BHK  House for Sale in Anand Nagar Bandlaguda Hyderabad,,,Anand Nagar,Hyderabad,17.3695135051451,78.5761101115763,,,SingleFamilyResidence,,,https://www.magicbricks.com/propertyDetails/2-BHK-1545-Sq-ft-Residential-House-FOR-Sale-Anand-Nagar-in-Hyderabad&id=4d423638353231343137
4 BHK Apartment for Sale in Kompally Hyderabad,,,Kompally,Hyderabad,17.5425945515091,78.4822910638784,,,Apartment,,,https://www.magicbricks.com/propertyDetails/4-BHK-2705-Sq-ft-Multistorey-Apartment-FOR-Sale-Kompally-in-Hyderabad&id=4d423638333633383939
"4 BHK Villa for Sale in Ghatkesar, NH 2 2 Hyderabad",,,Ghatkesar,Hyderabad,17.4583999021231,78.6906403554018,,,SingleFamilyResidence,,,https://www.magicbricks.com/propertyDetails/4-BHK-1647-Sq-ft-Villa-FOR-Sale-Ghatkesar-in-Hyderabad&id=4d423739343932323339
2 BHK Apartment for Sale in Navodaya Colony Kukatpally Hyderabad,,,Navodaya Colony Kukatpally,Hyderabad,17.492736,78.401235,,,Apartment,,,https://www.magicbricks.com/propertyDetails/2-BHK-1458-Sq-ft-Multistorey-Apartment-FOR-Sale-Navodaya-Colony-Kukatpally-in-Hyderabad&id=4d423738383132323531
2 BHK  House for Sale in Hayathnagar Hyderabad,,,Hayathnagar,Hyderabad,17.31230175,78.72514669,,,SingleFamilyResidence,,,https://www.magicbricks.com/propertyDetails/2-BHK-1404-Sq-ft-Residential-House-FOR-Sale-Hayathnagar-in-Hyderabad&id=4d423733323839303031
4 BHK  House for Sale in Rampally Hyderabad,,,Rampally,Hyderabad,17.46332359313965,78.63460540771484,,,SingleFamilyResidence,,,https://www.magicbricks.com/propertyDetails/4-BHK-2300-Sq-ft-Residential-House-FOR-Sale-Rampally-in-Hyderabad&id=4d423636303431363131
"3 BHK Villa for Sale in Patancheru, Hyderabad Hyderabad",,,,Hyderabad,,,,,SingleFamilyResidence,,,https://www.magicbricks.com/propertyDetails/3-BHK-2474-Sq-ft-Villa-FOR-Sale-in-Hyderabad&id=4d423638303832363039
2 BHK Apartment for Sale in Gachibowli Hyderabad,,,Gachibowli,Hyderabad,17.443563,78.3397746,,,Apartment,,,https://www.magicbricks.com/propertyDetails/2-BHK-808-Sq-ft-Multistorey-Apartment-FOR-Sale-Gachibowli-in-Hyderabad&id=4d423739343636323833
2 BHK  House for Sale in Gajularamaram Hyderabad,,,Gajularamaram,Hyderabad,17.539549,78.40937,,,SingleFamilyResidence,,,https://www.magicbricks.com/propertyDetails/2-BHK-1320-Sq-ft-Residential-House-FOR-Sale-Gajularamaram-in-Hyderabad&id=4d423734383631343031
2 BHK  House for Sale in Srivani Nagar Hyderabad,,,Srivani Nagar,Hyderabad,17.523043,78.3425849,,,SingleFamilyResidence,,,https://www.magicbricks.com/propertyDetails/2-BHK-167-Sq-yrd-Residential-House-FOR-Sale-Srivani-Nagar-in-Hyderabad&id=4d423734393136383035
2 BHK  House for Sale in Gayatri Nagar Hyderabad,,,Gayatri Nagar,Hyderabad,17.455615997314453,78.40386962890625,,,SingleFamilyResidence,,,https://www.magicbricks.com/propertyDetails/2-BHK-1050-Sq-ft-Residential-House-FOR-Sale-Gayatri-Nagar-in-Hyderabad&id=4d423734393139313731
3 BHK Apartment for Sale in Ameenpur Hyderabad,,,,Hyderabad,17.5327628,78.3392401,,,Apartment,,,https://www.magicbricks.com/propertyDetails/3-BHK-1579-Sq-ft-Multistorey-Apartment-FOR-Sale-Ameenpur-in-Hyderabad&id=4d423739343733383831
3 BHK Apartment for Sale in Manikonda Jagir Hyderabad,,,Manikonda,Hyderabad,17.410971458035277,78.38691976508274,,,Apartment,,,https://www.magicbricks.com/propertyDetails/3-BHK-1750-Sq-ft-Multistorey-Apartment-FOR-Sale-Manikonda-in-Hyderabad&id=4d423732303831343035
"2 BHK  House for Sale in Boduppal, NH 2 2 Hyderabad",,,Boduppal,Hyderabad,17.4191334463594,78.5808307414651,,,SingleFamilyResidence,,,https://www.magicbricks.com/propertyDetails/2-BHK-1260-Sq-ft-Residential-House-FOR-Sale-Boduppal-in-Hyderabad&id=4d423638313130343835
2 BHK Apartment for Sale in Kompally Hyderabad,,,Kompally,Hyderabad,17.5425945515091,78.4822910638784,,,Apartment,,,https://www.magicbricks.com/propertyDetails/2-BHK-842-Sq-ft-Multistorey-Apartment-FOR-Sale-Kompally-in-Hyderabad&id=4d423830353137323931
"3 BHK Apartment for Sale in Dews Ville, Manchirevula Hyderabad",,,Dews Ville,Hyderabad,17.370692,78.3602314,,,Apartment,,,https://www.magicbricks.com/propertyDetails/3-BHK-1686-Sq-ft-Multistorey-Apartment-FOR-Sale-Dews-Ville-in-Hyderabad&id=4d423739343834313031
3 BHK Builder Floor for Sale in Ameenpur Hyderabad,,,,Hyderabad,17.5265125876332,78.3316496153237,,,Apartment,,,https://www.magicbricks.com/propertyDetails/3-BHK-1509-Sq-ft-Builder-Floor-Apartment-FOR-Sale-Ameenpur-in-Hyderabad&id=4d423739343835313731
"4 BHK Villa for Sale in Ghatkesar, NH 2 2 Hyderabad",,,Ghatkesar,Hyderabad,17.4583999021231,78.6906403554018,,,SingleFamilyResidence,,,https://www.magicbricks.com/propertyDetails/4-BHK-1647-Sq-ft-Villa-FOR-Sale-Ghatkesar-in-Hyderabad&id=4d423739343932313333
3 BHK Apartment for Sale in Kompally Hyderabad,,,Kompally,Hyderabad,17.5425945515091,78.4822910638784,,,Apartment,,,https://www.magicbricks.com/propertyDetails/3-BHK-1440-Sq-ft-Multistorey-Apartment-FOR-Sale-Kompally-in-Hyderabad&id=4d423730393334323735
3 BHK Apartment for Sale in Kompally Hyderabad,,,Kompally,Hyderabad,17.56767020702182,78.47208054678637,,,Apartment,,,https://www.magicbricks.com/propertyDetails/3-BHK-1930-Sq-ft-Multistorey-Apartment-FOR-Sale-Kompally-in-Hyderabad&id=4d423636313339373831
3 BHK  House for Sale in Parvathapur Hyderabad,,,Parvathapur,Hyderabad,17.3969813259549,78.6157122475114,,,SingleFamilyResidence,,,https://www.magicbricks.com/propertyDetails/3-BHK-217-Sq-yrd-Residential-House-FOR-Sale-Parvathapur-in-Hyderabad&id=4d423636303338323235
"2 BHK Apartment for Sale in Miyapur, NH 9 Hyderabad",,,Miyapur,Hyderabad,17.5210925,78.3442965,,,Apartment,,,https://www.magicbricks.com/propertyDetails/2-BHK-1215-Sq-ft-Multistorey-Apartment-FOR-Sale-Miyapur-in-Hyderabad&id=4d423830363631313431
3 BHK Apartment for Sale in East Anandbagh Hyderabad,,,,Hyderabad,17.45615005493164,78.54615783691406,,,Apartment,,,https://www.magicbricks.com/propertyDetails/3-BHK-1800-Sq-ft-Multistorey-Apartment-FOR-Sale-East-Anandbagh-in-Hyderabad&id=4d423734383639353935
3 BHK Apartment for Sale in garuda infra Hyderabad,,,,Hyderabad,17.500933,78.404808,,,Apartment,,,https://www.magicbricks.com/propertyDetails/3-BHK-2469-Sq-ft-Multistorey-Apartment-FOR-Sale-in-Hyderabad&id=4d423638303738393137
2 BHK  House for Sale in Kandukur PS Road Hyderabad,,,Kandukur PS Road,Hyderabad,17.06964111328125,78.48172760009766,,,SingleFamilyResidence,,,https://www.magicbricks.com/propertyDetails/2-BHK-167-Sq-yrd-Residential-House-FOR-Sale-Kandukur-PS-Road-in-Hyderabad&id=4d423830343733313831
3 BHK Apartment for Sale in Yapral Hyderabad,,,Yapral,Hyderabad,17.5117481,78.5345816,,,Apartment,,,https://www.magicbricks.com/propertyDetails/3-BHK-1630-Sq-ft-Multistorey-Apartment-FOR-Sale-Yapral-in-Hyderabad&id=4d423635363634373037
3 BHK Builder Floor for Sale in Resham Bagh Golconda Fort Hyderabad,,,Resham Bagh Golconda Fort,Hyderabad,17.41984904,78.43782178,,,Apartment,,,https://www.magicbricks.com/propertyDetails/3-BHK-3200-Sq-ft-Builder-Floor-Apartment-FOR-Sale-Resham-Bagh-Golconda-Fort-in-Hyderabad&id=4d423730393432323835
"3 BHK Apartment for Sale in Uppal, NH 2 2 Hyderabad",,,Uppal,Hyderabad,17.41178321838379,78.56465148925781,,,Apartment,,,https://www.magicbricks.com/propertyDetails/3-BHK-1500-Sq-ft-Multistorey-Apartment-FOR-Sale-Uppal-in-Hyderabad&id=4d423830343639363631
5 BHK  House for Sale in Gajularamaram Hyderabad,,,Gajularamaram,Hyderabad,17.539548873901367,78.40937042236328,,,SingleFamilyResidence,,,https://www.magicbricks.com/propertyDetails/5-BHK-2700-Sq-ft-Residential-House-FOR-Sale-Gajularamaram-in-Hyderabad&id=4d423634353232353037
4 BHK  House for Sale in Nagaram Road Hyderabad,,,Nagaram Road,Hyderabad,17.49356779,78.59721621,,,SingleFamilyResidence,,,https://www.magicbricks.com/propertyDetails/4-BHK-2200-Sq-ft-Residential-House-FOR-Sale-Nagaram-Road-in-Hyderabad&id=4d423739343237393433
3 BHK Apartment for Sale in Miyapur Main Road Hyderabad,,,Miyapur Main Road,Hyderabad,17.5210925,78.3442965,,,Apartment,,,https://www.magicbricks.com/propertyDetails/3-BHK-1710-Sq-ft-Multistorey-Apartment-FOR-Sale-Miyapur-Main-Road-in-Hyderabad&id=4d423830363635383639
3 BHK Apartment for Sale in LAKEVIEW Hyderabad,,,,Hyderabad,,,,,Apartment,,,https://www.magicbricks.com/propertyDetails/3-BHK-2055-Sq-ft-Multistorey-Apartment-FOR-Sale-in-Hyderabad&id=4d423730303732383737
"2 BHK  House for Sale in Vanasthalipuram, NH 9 Hyderabad",,,Vanasthalipuram,Hyderabad,17.323888778686523,78.57563018798828,,,SingleFamilyResidence,,,https://www.magicbricks.com/propertyDetails/2-BHK-1000-Sq-ft-Residential-House-FOR-Sale-Vanasthalipuram-in-Hyderabad&id=4d423733383535303537
3 BHK Villa for Sale in Gagillapur Hyderabad,,,,Hyderabad,17.618628025002497,78.38658141800101,,,SingleFamilyResidence,,,https://www.magicbricks.com/propertyDetails/3-BHK-1989-Sq-ft-Villa-FOR-Sale-Gagillapur-in-Hyderabad&id=4d423733383432353935
2 BHK Apartment for Sale in Gachibowli Hyderabad,,,Gachibowli,Hyderabad,17.462214154191,78.2844353257521,,,Apartment,,,https://www.magicbricks.com/propertyDetails/2-BHK-1344-Sq-ft-Multistorey-Apartment-FOR-Sale-Gachibowli-in-Hyderabad&id=4d423738343136303335
4 BHK  House for Sale in Almasguda Hyderabad,,,Almasguda,Hyderabad,17.2978966,78.546576,,,SingleFamilyResidence,,,https://www.magicbricks.com/propertyDetails/4-BHK-2800-Sq-ft-Residential-House-FOR-Sale-Almasguda-in-Hyderabad&id=4d423731383736333031
3 BHK  House for Sale in Balapur Hyderabad,,,Balapur,Hyderabad,17.301605224609375,78.50374603271484,,,SingleFamilyResidence,,,https://www.magicbricks.com/propertyDetails/3-BHK-1100-Sq-ft-Residential-House-FOR-Sale-Balapur-in-Hyderabad&id=4d423639303530323839
3 BHK Builder Floor for Sale in Bandlaguda Jagir Hyderabad,,,Bandlaguda Jagir,Hyderabad,17.3571086350415,78.3948731204593,,,Apartment,,,https://www.magicbricks.com/propertyDetails/3-BHK-1735-Sq-ft-Builder-Floor-Apartment-FOR-Sale-Bandlaguda-Jagir-in-Hyderabad&id=4d423735393533323239
3 BHK  House for Sale in Shamirpet Hyderabad,,,Shamirpet,Hyderabad,17.657222,78.601076,,,SingleFamilyResidence,,,https://www.magicbricks.com/propertyDetails/3-BHK-1450-Sq-ft-Residential-House-FOR-Sale-Shamirpet-in-Hyderabad&id=4d423638353332353439
3 BHK Apartment for Sale in Shamshabad Hyderabad,,,Shamshabad,Hyderabad,17.2452845,78.43668,,,Apartment,,,https://www.magicbricks.com/propertyDetails/3-BHK-1588-Sq-ft-Multistorey-Apartment-FOR-Sale-Shamshabad-in-Hyderabad&id=4d423738353034353237
3 BHK Apartment for Sale in Ameenpur Hyderabad,,,,Hyderabad,17.5210925,78.3442965,,,Apartment,,,https://www.magicbricks.com/propertyDetails/3-BHK-1715-Sq-ft-Multistorey-Apartment-FOR-Sale-Ameenpur-in-Hyderabad&id=4d423733353833333637
3 BHK Apartment for Sale in Kompally Hyderabad,,,Kompally,Hyderabad,17.54259490966797,78.48229217529297,,,Apartment,,,https://www.magicbricks.com/propertyDetails/3-BHK-1650-Sq-ft-Multistorey-Apartment-FOR-Sale-Kompally-in-Hyderabad&id=4d423638313136313633
3 BHK Apartment for Sale in Sai Nagar Bairamalguda Hyderabad,,,Sai Nagar Bairamalguda,Hyderabad,17.341413497924805,78.54396057128906,,,Apartment,,,https://www.magicbricks.com/propertyDetails/3-BHK-1600-Sq-ft-Multistorey-Apartment-FOR-Sale-Sai-Nagar-Bairamalguda-in-Hyderabad&id=4d423638313032373135
2 BHK Apartment for Sale in Kondapur Hyderabad,,,Kondapur,Hyderabad,17.4661387919325,78.3574087383959,,,Apartment,,,https://www.magicbricks.com/propertyDetails/2-BHK-1200-Sq-ft-Multistorey-Apartment-FOR-Sale-Kondapur-in-Hyderabad&id=4d423638313235313435
"1 BHK  House for Sale in Moosapet, NH 9 Hyderabad",,,Moosapet,Hyderabad,17.4686450650242,78.4268484528144,,,SingleFamilyResidence,,,https://www.magicbricks.com/propertyDetails/1-BHK-50-Sq-yrd-Residential-House-FOR-Sale-Moosapet-in-Hyderabad&id=4d423636303338383133
2 BHK Apartment for Sale in Bachupally Hyderabad,,,Bachupally,Hyderabad,17.551816,78.3860695,,,Apartment,,,https://www.magicbricks.com/propertyDetails/2-BHK-1388-Sq-ft-Multistorey-Apartment-FOR-Sale-Bachupally-in-Hyderabad&id=4d423739343035343135
6 BHK  House for Sale in Almasguda Badangpet Hyderabad,,,Almasguda Badangpet,Hyderabad,17.22388035,78.45420771,,,SingleFamilyResidence,,,https://www.magicbricks.com/propertyDetails/6-BHK-3800-Sq-ft-Residential-House-FOR-Sale-Almasguda-Badangpet-in-Hyderabad&id=4d423732303234393935
"2 BHK Apartment for Sale in Kanchan Bagh, Hyderabad Hyderabad",,,,Hyderabad,,,,,Apartment,,,https://www.magicbricks.com/propertyDetails/2-BHK-1407-Sq-ft-Multistorey-Apartment-FOR-Sale-in-Hyderabad&id=4d423830343534363135
3 BHK Apartment for Sale in Bachupally Hyderabad,,,Bachupally,Hyderabad,17.551816,78.3860695,,,Apartment,,,https://www.magicbricks.com/propertyDetails/3-BHK-1617-Sq-ft-Multistorey-Apartment-FOR-Sale-Bachupally-in-Hyderabad&id=4d423637393937303031
"2 BHK  House for Sale in Indresham, Bachuguda Hyderabad",,,Indresham,Hyderabad,17.569432,78.2535764,,,SingleFamilyResidence,,,https://www.magicbricks.com/propertyDetails/2-BHK-900-Sq-ft-Residential-House-FOR-Sale-Indresham-in-Hyderabad&id=4d423830323738323231
3 BHK Villa for Sale in Kowkoor Hyderabad,,,Kowkur,Hyderabad,17.5327605966151,78.5362865054776,,,SingleFamilyResidence,,,https://www.magicbricks.com/propertyDetails/3-BHK-1585-Sq-ft-Villa-FOR-Sale-Kowkur-in-Hyderabad&id=4d423830343431323339
3 BHK Apartment for Sale in Nagole Hyderabad,,,Nagole,Hyderabad,17.3770854257655,78.5681986502319,,,Apartment,,,https://www.magicbricks.com/propertyDetails/3-BHK-2300-Sq-ft-Multistorey-Apartment-FOR-Sale-Nagole-in-Hyderabad&id=4d423733313332353431
2 BHK  House for Sale in Nagaram Hyderabad,,,Nagaram,Hyderabad,17.483861923217773,78.60840606689453,,,SingleFamilyResidence,,,https://www.magicbricks.com/propertyDetails/2-BHK-1800-Sq-ft-Residential-House-FOR-Sale-Nagaram-in-Hyderabad&id=4d423830343235333839
"3 BHK Apartment for Sale in Saroornagar, NH 9 Hyderabad",,,Saroornagar,Hyderabad,17.36017417907715,78.53919982910156,,,Apartment,,,https://www.magicbricks.com/propertyDetails/3-BHK-2450-Sq-ft-Multistorey-Apartment-FOR-Sale-Saroornagar-in-Hyderabad&id=4d423434353536383537
5 BHK  House for Sale in Hayathnagar Khalsa Hyderabad,,,Hayathnagar,Hyderabad,17.33023,78.602495,,,SingleFamilyResidence,,,https://www.magicbricks.com/propertyDetails/5-BHK-2000-Sq-ft-Residential-House-FOR-Sale-Hayathnagar-in-Hyderabad&id=4d423635313631313439
3 BHK  House for Sale in Dammaiguda Hyderabad,,,Dammaiguda,Hyderabad,17.5012465,78.5997209,,,SingleFamilyResidence,,,https://www.magicbricks.com/propertyDetails/3-BHK-2200-Sq-ft-Residential-House-FOR-Sale-Dammaiguda-in-Hyderabad&id=4d423635313833323233
3 BHK Builder Floor for Sale in Mahadev Pally Hyderabad,,,Mahadev Pally,Hyderabad,18.17505389,77.89397108,,,Apartment,,,https://www.magicbricks.com/propertyDetails/3-BHK-1570-Sq-ft-Builder-Floor-Apartment-FOR-Sale-Mahadev-Pally-in-Hyderabad&id=4d423733393132363131
"3 BHK Apartment for Sale in Venkatraya Nagar, Nizampet Hyderabad",,,Venkatraya Nagar,Hyderabad,17.35723114013672,78.37869262695312,,,Apartment,,,https://www.magicbricks.com/propertyDetails/3-BHK-1800-Sq-ft-Multistorey-Apartment-FOR-Sale-Venkatraya-Nagar-in-Hyderabad&id=4d423638393534323331
"3 BHK Apartment for Sale in Telangana NGOS Colony, Katedan Industrial Area Hyderabad",,,Telangana NGOS Colony,Hyderabad,17.307368,78.4342875,,,Apartment,,,https://www.magicbricks.com/propertyDetails/3-BHK-1600-Sq-ft-Multistorey-Apartment-FOR-Sale-Telangana-NGOS-Colony-in-Hyderabad&id=4d423637303638313337
3 BHK Villa for Sale in Malkajgiri Hyderabad,,,,Hyderabad,17.448486,78.532389,,,SingleFamilyResidence,,,https://www.magicbricks.com/propertyDetails/3-BHK-1300-Sq-ft-Villa-FOR-Sale-Malkajgiri-in-Hyderabad&id=4d423739343037343439
3 BHK Apartment for Sale in Mallampet Road Hyderabad,,,Mallampet Road,Hyderabad,17.551816,78.3860695,,,Apartment,,,https://www.magicbricks.com/propertyDetails/3-BHK-1356-Sq-ft-Multistorey-Apartment-FOR-Sale-Mallampet-Road-in-Hyderabad&id=4d423730313635353633
3 BHK Villa for Sale in Shamirpet Hyderabad,,,Shamirpet,Hyderabad,17.656989,78.601118,,,SingleFamilyResidence,,,https://www.magicbricks.com/propertyDetails/3-BHK-1841-Sq-ft-Villa-FOR-Sale-Shamirpet-in-Hyderabad&id=4d423235343132333535
2 BHK  House for Sale in Nagarjuna Sagar Road Hyderabad,,,Nagarjuna Sagar Road,Hyderabad,17.272611618041992,78.58914184570312,,,SingleFamilyResidence,,,https://www.magicbricks.com/propertyDetails/2-BHK-1700-Sq-ft-Residential-House-FOR-Sale-Nagarjuna-Sagar-Road-in-Hyderabad&id=4d423731303232373239
2 BHK  House for Sale in Sravanthi Nagar Hyderabad,,,,Hyderabad,,,,,SingleFamilyResidence,,,https://www.magicbricks.com/propertyDetails/2-BHK-133-Sq-yrd-Residential-House-FOR-Sale-in-Hyderabad&id=4d423530343037313834
"2 BHK Builder Floor for Sale in Kachiguda, NH 2 2 Hyderabad",,,Kachiguda,Hyderabad,17.387998,78.495103,,,Apartment,,,https://www.magicbricks.com/propertyDetails/2-BHK-1500-Sq-ft-Builder-Floor-Apartment-FOR-Sale-Kachiguda-in-Hyderabad&id=4d423636313035383635
3 BHK  House for Sale in Mallapur Hyderabad,,,,Hyderabad,17.18787138,78.26782611,,,SingleFamilyResidence,,,https://www.magicbricks.com/propertyDetails/3-BHK-1800-Sq-ft-Residential-House-FOR-Sale-Mallapur-in-Hyderabad&id=4d423739383032383231
"6 BHK  House for Sale in Ghatkesar, NH 2 2 Hyderabad",,,Ghatkesar,Hyderabad,17.4513233430069,78.6811762527671,,,SingleFamilyResidence,,,https://www.magicbricks.com/propertyDetails/6-BHK-6000-Sq-ft-Residential-House-FOR-Sale-Ghatkesar-in-Hyderabad&id=4d423638303533353735
"3 BHK Apartment for Sale in Kollur, Outer Ring Road Hyderabad",,,Kollur,Hyderabad,17.438558,78.23899,,,Apartment,,,https://www.magicbricks.com/propertyDetails/3-BHK-1753-Sq-ft-Multistorey-Apartment-FOR-Sale-Kollur-in-Hyderabad&id=4d423633393234353937
2 BHK Apartment for Sale in Anuhar Homes Hyderabad,,,,Hyderabad,17.3861055,78.3702875,,,Apartment,,,https://www.magicbricks.com/propertyDetails/2-BHK-1296-Sq-ft-Multistorey-Apartment-FOR-Sale-in-Hyderabad&id=4d423830313631333231
"3 BHK Apartment for Sale in Kollur, Outer Ring Road Hyderabad",,,Kollur,Hyderabad,17.4344695,78.2425939,,,Apartment,,,https://www.magicbricks.com/propertyDetails/3-BHK-2030-Sq-ft-Multistorey-Apartment-FOR-Sale-Kollur-in-Hyderabad&id=4d423830353138323535
3 BHK Builder Floor for Sale in Medipally Hyderabad,,,Medipally,Hyderabad,17.407501,78.601657,,,Apartment,,,https://www.magicbricks.com/propertyDetails/3-BHK-1790-Sq-ft-Builder-Floor-Apartment-FOR-Sale-Medipally-in-Hyderabad&id=4d423731393533373333
"3 BHK Apartment for Sale in Vanasthalipuram, NH 9 Hyderabad",,,Vanasthalipuram,Hyderabad,17.3238888273844,78.5756320027867,,,Apartment,,,https://www.magicbricks.com/propertyDetails/3-BHK-1810-Sq-ft-Multistorey-Apartment-FOR-Sale-Vanasthalipuram-in-Hyderabad&id=4d423738313031323631
4 BHK  House for Sale in Siddanthi Hyderabad,,,Siddanthi,Hyderabad,17.26888927,78.39159493,,,SingleFamilyResidence,,,https://www.magicbricks.com/propertyDetails/4-BHK-148-Sq-yrd-Residential-House-FOR-Sale-Siddanthi-in-Hyderabad&id=4d423830353438333839
2 BHK Builder Floor for Sale in Kondapur Hyderabad,,,Kondapur,Hyderabad,17.4661387919325,78.3574087383959,,,Apartment,,,https://www.magicbricks.com/propertyDetails/2-BHK-1000-Sq-ft-Builder-Floor-Apartment-FOR-Sale-Kondapur-in-Hyderabad&id=4d423639313035333431
3 BHK Villa for Sale in Dammaiguda Hyderabad,,,Dammaiguda,Hyderabad,17.5012465,78.5997209,,,SingleFamilyResidence,,,https://www.magicbricks.com/propertyDetails/3-BHK-1800-Sq-ft-Villa-FOR-Sale-Dammaiguda-in-Hyderabad&id=4d423637303336383135
5 BHK  House for Sale in Nagaram Hyderabad,,,Nagaram,Hyderabad,17.4838610299951,78.6084083107014,,,SingleFamilyResidence,,,https://www.magicbricks.com/propertyDetails/5-BHK-2900-Sq-ft-Residential-House-FOR-Sale-Nagaram-in-Hyderabad&id=4d423638373235323735
"6 BHK  House for Sale in Falaknuma, Falaknuma Road Hyderabad",,,Falaknuma,Hyderabad,17.329409,78.4652465,,,SingleFamilyResidence,,,https://www.magicbricks.com/propertyDetails/6-BHK-2700-Sq-ft-Residential-House-FOR-Sale-Falaknuma-in-Hyderabad&id=4d423638353030303033
2 BHK  House for Sale in Almasguda Hyderabad,,,Almasguda,Hyderabad,17.3121343811598,78.5395770293615,,,SingleFamilyResidence,,,https://www.magicbricks.com/propertyDetails/2-BHK-1360-Sq-ft-Residential-House-FOR-Sale-Almasguda-in-Hyderabad&id=4d423637303334303633
"3 BHK Apartment for Sale in Tellapur, Outer Ring Road Hyderabad",,,Tellapur,Hyderabad,17.4606196,78.2751625,,,Apartment,,,https://www.magicbricks.com/propertyDetails/3-BHK-1625-Sq-ft-Multistorey-Apartment-FOR-Sale-Tellapur-in-Hyderabad&id=4d423738383332363031
4 BHK Builder Floor for Sale in Sainikpuri Hyderabad,,,Sainikpuri,Hyderabad,17.505786120891,78.5651573606745,,,Apartment,,,https://www.magicbricks.com/propertyDetails/4-BHK-2600-Sq-ft-Builder-Floor-Apartment-FOR-Sale-Sainikpuri-in-Hyderabad&id=4d423732373936363939
2 BHK  House for Sale in Pedda Amberpet Hyderabad,,,,Hyderabad,17.322010040283203,78.64297485351562,,,SingleFamilyResidence,,,https://www.magicbricks.com/propertyDetails/2-BHK-1188-Sq-ft-Residential-House-FOR-Sale-Pedda-Amberpet-in-Hyderabad&id=4d423739313835303433
2 BHK  House for Sale in Allwyn Colony Road Hyderabad,,,Allwyn Colony Road,Hyderabad,17.49929428100586,78.41363525390625,,,SingleFamilyResidence,,,https://www.magicbricks.com/propertyDetails/2-BHK-125-Sq-yrd-Residential-House-FOR-Sale-Allwyn-Colony-Road-in-Hyderabad&id=4d423830313935373931
"2 BHK Apartment for Sale in Miyapur, NH 9 Hyderabad",,,Miyapur,Hyderabad,17.5210925,78.3442965,,,Apartment,,,https://www.magicbricks.com/propertyDetails/2-BHK-1170-Sq-ft-Multistorey-Apartment-FOR-Sale-Miyapur-in-Hyderabad&id=4d423638343030383839
  House for Sale in Kishan Bagh Hyderabad,,,Kishan Bagh,Hyderabad,17.3494814394004,78.4425955996957,,,SingleFamilyResidence,,,https://www.magicbricks.com/propertyDetails/600-Sq-yrd-Residential-House-FOR-Sale-Kishan-Bagh-in-Hyderabad&id=4d423236343330323839
"2 BHK  House for Sale in Boduppal, NH 2 2 Hyderabad",,,Boduppal,Hyderabad,17.4191334463594,78.5808307414651,,,SingleFamilyResidence,,,https://www.magicbricks.com/propertyDetails/2-BHK-1350-Sq-ft-Residential-House-FOR-Sale-Boduppal-in-Hyderabad&id=4d423638353235393239
"2 BHK  House for Sale in Indresham, Bachuguda Hyderabad",,,Indresham,Hyderabad,17.569432,78.2535764,,,SingleFamilyResidence,,,https://www.magicbricks.com/propertyDetails/2-BHK-100-Sq-yrd-Residential-House-FOR-Sale-Indresham-in-Hyderabad&id=4d423830333336303333
3 BHK Apartment for Sale in Srisailam Highway Hyderabad,,,Srisailam Highway,Hyderabad,17.282504188553,78.4717918916333,,,Apartment,,,https://www.magicbricks.com/propertyDetails/3-BHK-1760-Sq-ft-Multistorey-Apartment-FOR-Sale-Srisailam-Highway-in-Hyderabad&id=4d423736323531363937
"3 BHK Apartment for Sale in Jaibery Colony, Komapally Hyderabad",,,Jaibery Colony,Hyderabad,17.5418847780585,78.4673637970478,,,Apartment,,,https://www.magicbricks.com/propertyDetails/3-BHK-1362-Sq-ft-Multistorey-Apartment-FOR-Sale-Jaibery-Colony-in-Hyderabad&id=4d423733313239303235
2 BHK  House for Sale in Hakimpet Hyderabad,,,Hakimpet,Hyderabad,17.4072820976085,78.4141671189904,,,SingleFamilyResidence,,,https://www.magicbricks.com/propertyDetails/2-BHK-1000-Sq-ft-Residential-House-FOR-Sale-Hakimpet-in-Hyderabad&id=4d423734393031313035
"3 BHK Apartment for Sale in Sindhi Colony, Hyderabad Hyderabad",,,,Hyderabad,,,,,Apartment,,,https://www.magicbricks.com/propertyDetails/3-BHK-1755-Sq-ft-Multistorey-Apartment-FOR-Sale-in-Hyderabad&id=4d423636313535343437
"2 BHK Villa for Sale in Moinabad, Chevella Road Hyderabad",,,Moinabad,Hyderabad,17.3274947951477,78.2735600886748,,,SingleFamilyResidence,,,https://www.magicbricks.com/propertyDetails/2-BHK-1800-Sq-ft-Villa-FOR-Sale-Moinabad-in-Hyderabad&id=4d423730393431323237
"6 BHK  House for Sale in Quthbullapur, NH 7 Hyderabad",,,Quthbullapur,Hyderabad,17.498326,78.4636455,,,SingleFamilyResidence,,,https://www.magicbricks.com/propertyDetails/6-BHK-1000-Sq-ft-Residential-House-FOR-Sale-Quthbullapur-in-Hyderabad&id=4d423637373736393837
2 BHK  House for Sale in Sai Nagar Indresham Hyderabad,,,Sai Nagar Indresham,Hyderabad,17.56739616394043,78.26060485839844,,,SingleFamilyResidence,,,https://www.magicbricks.com/propertyDetails/2-BHK-167-Sq-yrd-Residential-House-FOR-Sale-Sai-Nagar-Indresham-in-Hyderabad&id=4d423733363734333337
4 BHK  House for Sale in Meerpet Hyderabad,,,Meerpet,Hyderabad,17.322824478149414,78.52800750732422,,,SingleFamilyResidence,,,https://www.magicbricks.com/propertyDetails/4-BHK-253-Sq-yrd-Residential-House-FOR-Sale-Meerpet-in-Hyderabad&id=4d423830323639303231
"3 BHK Apartment for Sale in Tellapur, Outer Ring Road Hyderabad",,,Tellapur,Hyderabad,17.4606196,78.2751625,,,Apartment,,,https://www.magicbricks.com/propertyDetails/3-BHK-1625-Sq-ft-Multistorey-Apartment-FOR-Sale-Tellapur-in-Hyderabad&id=4d423738383332363031
2 BHK  House for Sale in Adikmet Hyderabad,,,Adikmet,Hyderabad,17.4062995,78.5110705,,,SingleFamilyResidence,,,https://www.magicbricks.com/propertyDetails/2-BHK-695-Sq-ft-Residential-House-FOR-Sale-Adikmet-in-Hyderabad&id=4d423732383732343133
4 BHK  House for Sale in Kapra Hyderabad,,,Kapra,Hyderabad,17.4895887084433,78.5826508140709,,,SingleFamilyResidence,,,https://www.magicbricks.com/propertyDetails/4-BHK-2600-Sq-ft-Residential-House-FOR-Sale-Kapra-in-Hyderabad&id=4d423636313237333237
3 BHK Villa for Sale in Patancheruvu Hyderabad,,,Patancheru,Hyderabad,17.541972,78.279139,,,SingleFamilyResidence,,,https://www.magicbricks.com/propertyDetails/3-BHK-1600-Sq-ft-Villa-FOR-Sale-Patancheru-in-Hyderabad&id=4d423630323632373931
3 BHK Villa for Sale in Dammaiguda Hyderabad,,,Dammaiguda,Hyderabad,17.5012465,78.5997209,,,SingleFamilyResidence,,,https://www.magicbricks.com/propertyDetails/3-BHK-1900-Sq-ft-Villa-FOR-Sale-Dammaiguda-in-Hyderabad&id=4d423730313233383331
"2 BHK  House for Sale in Indresham, Bachuguda Hyderabad",,,Indresham,Hyderabad,17.569432,78.2535764,,,SingleFamilyResidence,,,https://www.magicbricks.com/propertyDetails/2-BHK-1350-Sq-ft-Residential-House-FOR-Sale-Indresham-in-Hyderabad&id=4d423735353735313331
3 BHK Apartment for Sale in Raja Rajeshwara Nagar Hyderabad,,,Raja Rajeshwara Nagar,Hyderabad,17.4687224,78.3534927,,,Apartment,,,https://www.magicbricks.com/propertyDetails/3-BHK-1550-Sq-ft-Multistorey-Apartment-FOR-Sale-Raja-Rajeshwara-Nagar-in-Hyderabad&id=4d423733363937313635
2 BHK Apartment for Sale in Bachupally Hyderabad,,,Bachupally,Hyderabad,17.551816,78.3860695,,,Apartment,,,https://www.magicbricks.com/propertyDetails/2-BHK-1270-Sq-ft-Multistorey-Apartment-FOR-Sale-Bachupally-in-Hyderabad&id=4d423739393537333037
2 BHK  House for Sale in Old Bowenpally Cross Road Hyderabad,,,Old Bowenpally Cross Road,Hyderabad,17.411361694335938,78.50621032714844,,,SingleFamilyResidence,,,https://www.magicbricks.com/propertyDetails/2-BHK-1024-Sq-ft-Residential-House-FOR-Sale-Old-Bowenpally-Cross-Road-in-Hyderabad&id=4d423739313037313131
3 BHK Apartment for Sale in Dilsukhnagar Hyderabad,,,Dilsukhnagar,Hyderabad,17.368087768554688,78.5264663696289,,,Apartment,,,https://www.magicbricks.com/propertyDetails/3-BHK-1825-Sq-ft-Multistorey-Apartment-FOR-Sale-Dilsukhnagar-in-Hyderabad&id=4d423637363230333633
"2 BHK  House for Sale in Phanigiri Colony, Kothapet Hyderabad",,,Phanigiri Colony,Hyderabad,17.375625610351562,78.53898620605469,,,SingleFamilyResidence,,,https://www.magicbricks.com/propertyDetails/2-BHK-2800-Sq-ft-Residential-House-FOR-Sale-Phanigiri-Colony-in-Hyderabad&id=4d423732323736313339
2 BHK  House for Sale in Chitkul Hyderabad,,,,Hyderabad,17.560034,78.219482,,,SingleFamilyResidence,,,https://www.magicbricks.com/propertyDetails/2-BHK-1500-Sq-ft-Residential-House-FOR-Sale-Chitkul-in-Hyderabad&id=4d423639333933353033
"3 BHK Apartment for Sale in Aparna Cyberon, Osman Nagar, Hyderabad,Aparna Cyberon, Osman Nagar, Hyderabad Hyderabad",,,,Hyderabad,17.43512066265506,78.27301710784207,,,Apartment,,,https://www.magicbricks.com/propertyDetails/3-BHK-1494-Sq-ft-Multistorey-Apartment-FOR-Sale-in-Hyderabad&id=4d423739303231333433
3 BHK Builder Floor for Sale in Shaili Gardens Hyderabad,,,Shaili Gardens,Hyderabad,17.50109662,78.54937408,,,Apartment,,,https://www.magicbricks.com/propertyDetails/3-BHK-2565-Sq-ft-Builder-Floor-Apartment-FOR-Sale-Shaili-Gardens-in-Hyderabad&id=4d423738343030373535
3 BHK Apartment for Sale in Sri Nagar Colony Hyderabad,,,Sri Nagar Colony,Hyderabad,17.4287476,78.4412558,,,Apartment,,,https://www.magicbricks.com/propertyDetails/3-BHK-1700-Sq-ft-Multistorey-Apartment-FOR-Sale-Sri-Nagar-Colony-in-Hyderabad&id=4d423732323336383237
3 BHK  House for Sale in Chandragiri Colony Yapral Hyderabad,,,Chandragiri Colony,Hyderabad,17.5001765621292,78.5439450197796,,,SingleFamilyResidence,,,https://www.magicbricks.com/propertyDetails/3-BHK-2000-Sq-ft-Residential-House-FOR-Sale-Chandragiri-Colony-in-Hyderabad&id=4d423435333834343939
2 BHK Apartment for Sale in Kondapur Hyderabad,,,Kondapur,Hyderabad,17.4626829,78.353178,,,Apartment,,,https://www.magicbricks.com/propertyDetails/2-BHK-1457-Sq-ft-Multistorey-Apartment-FOR-Sale-Kondapur-in-Hyderabad&id=4d423731373636393331
3 BHK  House for Sale in HAL Colony Jeedimetla Hyderabad,,,HAL Colony,Hyderabad,17.5237141147556,78.4299025250008,,,SingleFamilyResidence,,,https://www.magicbricks.com/propertyDetails/3-BHK-110-Sq-ft-Residential-House-FOR-Sale-HAL-Colony-in-Hyderabad&id=4d423733393438373331
3 BHK Apartment for Sale in Budwel Hyderabad,,,,Hyderabad,17.32601518,78.40801562,,,Apartment,,,https://www.magicbricks.com/propertyDetails/3-BHK-1576-Sq-ft-Multistorey-Apartment-FOR-Sale-Budwel-in-Hyderabad&id=4d423830333932373739
"3 BHK Apartment for Sale in Kollur, Outer Ring Road Hyderabad",,,Kollur,Hyderabad,17.510186222374376,78.24033766500145,,,Apartment,,,https://www.magicbricks.com/propertyDetails/3-BHK-1700-Sq-ft-Multistorey-Apartment-FOR-Sale-Kollur-in-Hyderabad&id=4d423830353538313439
3 BHK Villa for Sale in Baghmankhal Hyderabad,,,Baghmankhal,Hyderabad,17.17953257,78.45026757,,,SingleFamilyResidence,,,https://www.magicbricks.com/propertyDetails/3-BHK-1860-Sq-ft-Villa-FOR-Sale-Baghmankhal-in-Hyderabad&id=4d423635393733333433
3 BHK  House for Sale in Teachers Colony Hastinapuram Hyderabad,,,Teachers Colony Hastinapuram,Hyderabad,17.3167065525594,78.5504671332738,,,SingleFamilyResidence,,,https://www.magicbricks.com/propertyDetails/3-BHK-500-Sq-ft-Residential-House-FOR-Sale-Teachers-Colony-Hastinapuram-in-Hyderabad&id=4d423637393432373039
5 BHK  House for Sale in Secunderabad Hyderabad,,,Secunderabad,Hyderabad,17.439928421494,78.4982737535037,,,SingleFamilyResidence,,,https://www.magicbricks.com/propertyDetails/5-BHK-3360-Sq-ft-Residential-House-FOR-Sale-Secunderabad-in-Hyderabad&id=4d423635323337323331
3 BHK  House for Sale in Bharat Nagar Moosapet Hyderabad,,,Bharat Nagar,Hyderabad,17.465573,78.427839,,,SingleFamilyResidence,,,https://www.magicbricks.com/propertyDetails/3-BHK-1080-Sq-ft-Residential-House-FOR-Sale-Bharat-Nagar-in-Hyderabad&id=4d423637393339333431
6 BHK  House for Sale in Mettuguda Hyderabad,,,Mettuguda,Hyderabad,17.4333365277906,78.521913346596,,,SingleFamilyResidence,,,https://www.magicbricks.com/propertyDetails/6-BHK-3000-Sq-ft-Residential-House-FOR-Sale-Mettuguda-in-Hyderabad&id=4d423637313830343031
"  House for Sale in Mallepally, NH 7 Hyderabad",,,Mallepally,Hyderabad,17.3890164859766,78.4580686687261,,,SingleFamilyResidence,,,https://www.magicbricks.com/propertyDetails/438-Sq-yrd-Residential-House-FOR-Sale-Mallepally-in-Hyderabad&id=4d423638303233343333
"3 BHK Apartment for Sale in Uppal, NH 2 2 Hyderabad",,,Uppal,Hyderabad,17.3679283037609,78.4317103301914,,,Apartment,,,https://www.magicbricks.com/propertyDetails/3-BHK-1530-Sq-ft-Multistorey-Apartment-FOR-Sale-Uppal-in-Hyderabad&id=4d423738383439333431
