title,description,address,locality,region,latitude,longitude,price,currency,propertyType,postedBy,sellerName,url
undefined,,,Peeramcheru,Hyderabad,17.3570149,78.369664,,,Apartment,,,https://www.magicbricks.com/propertyDetails/3-BHK-1680-Sq-ft-Multistorey-Apartment-FOR-Sale-Peeramcheru-in-Hyderabad&id=4d423830363231353233
3 BHK Apartment for Sale in Bachupally Hyderabad,,,Bachupally,Hyderabad,17.551816,78.3860695,,,Apartment,,,https://www.magicbricks.com/propertyDetails/3-BHK-1914-Sq-ft-Multistorey-Apartment-FOR-Sale-Bachupally-in-Hyderabad&id=4d423830353531353639
3 BHK Apartment for Sale in Nizampet Hyderabad,,,Nizampet,Hyderabad,17.527174687878116,78.37881107144624,,,Apartment,,,https://www.magicbricks.com/propertyDetails/3-BHK-1680-Sq-ft-Multistorey-Apartment-FOR-Sale-Nizampet-in-Hyderabad&id=4d423739313331383135
3 BHK Apartment for Sale in Ameenpur Hyderabad,,,,Hyderabad,17.5265125876332,78.3316496153237,,,Apartment,,,https://www.magicbricks.com/propertyDetails/3-BHK-2055-Sq-ft-Multistorey-Apartment-FOR-Sale-Ameenpur-in-Hyderabad&id=4d423830343731333933
3 BHK Apartment for Sale in Ameenpur Hyderabad,,,,Hyderabad,17.5265125876332,78.3316496153237,,,Apartment,,,https://www.magicbricks.com/propertyDetails/3-BHK-2055-Sq-ft-Multistorey-Apartment-FOR-Sale-Ameenpur-in-Hyderabad&id=4d423830343731333933
2 BHK Apartment for Sale in Moti Nagar Erragadda Hyderabad,,,Moti Nagar,Hyderabad,17.4464575,78.4185155,,,Apartment,,,https://www.magicbricks.com/propertyDetails/2-BHK-1177-Sq-ft-Multistorey-Apartment-FOR-Sale-Moti-Nagar-in-Hyderabad&id=4d423739313837353035
3 BHK  House for Sale in Kapra Hyderabad,,,Kapra,Hyderabad,17.4895887084433,78.5826508140709,,,SingleFamilyResidence,,,https://www.magicbricks.com/propertyDetails/3-BHK-139-Sq-yrd-Residential-House-FOR-Sale-Kapra-in-Hyderabad&id=4d423830333832303333
"3 BHK Apartment for Sale in Narsingi, Outer Ring Road Hyderabad",,,Narsingi,Hyderabad,17.395367978138943,78.3578086835387,,,Apartment,,,https://www.magicbricks.com/propertyDetails/3-BHK-1760-Sq-ft-Multistorey-Apartment-FOR-Sale-Narsingi-in-Hyderabad&id=4d423738303039383335
"3 BHK Apartment for Sale in Kollur, Outer Ring Road Hyderabad",,,Kollur,Hyderabad,17.515892468917965,78.23865832698293,,,Apartment,,,https://www.magicbricks.com/propertyDetails/3-BHK-1850-Sq-ft-Multistorey-Apartment-FOR-Sale-Kollur-in-Hyderabad&id=4d423737333330343635
3 BHK Villa for Sale in Kompally Hyderabad,,,Kompally,Hyderabad,17.5425945515091,78.4822910638784,,,SingleFamilyResidence,,,https://www.magicbricks.com/propertyDetails/3-BHK-2250-Sq-ft-Villa-FOR-Sale-Kompally-in-Hyderabad&id=4d423739383032333633
3 BHK Apartment for Sale in Bachupally Hyderabad,,,Bachupally,Hyderabad,17.551816,78.3860695,,,Apartment,,,https://www.magicbricks.com/propertyDetails/3-BHK-1353-Sq-ft-Multistorey-Apartment-FOR-Sale-Bachupally-in-Hyderabad&id=4d423739323437343239
3 BHK  House for Sale in Jeedimetla Hyderabad,,,Jeedimetla,Hyderabad,17.42267417907715,78.49393463134766,,,SingleFamilyResidence,,,https://www.magicbricks.com/propertyDetails/3-BHK-1800-Sq-ft-Residential-House-FOR-Sale-Jeedimetla-in-Hyderabad&id=4d423737343836383935
3 BHK  House for Sale in Jeedimetla Hyderabad,,,Jeedimetla,Hyderabad,17.42267417907715,78.49393463134766,,,SingleFamilyResidence,,,https://www.magicbricks.com/propertyDetails/3-BHK-1800-Sq-ft-Residential-House-FOR-Sale-Jeedimetla-in-Hyderabad&id=4d423737343836383935
"3 BHK Apartment for Sale in Kollur, Outer Ring Road Hyderabad",,,Kollur,Hyderabad,17.4344695,78.2425939,,,Apartment,,,https://www.magicbricks.com/propertyDetails/3-BHK-1700-Sq-ft-Multistorey-Apartment-FOR-Sale-Kollur-in-Hyderabad&id=4d423731393931343039
3 BHK Apartment for Sale in Adarsh Nagar Uppal Hyderabad,,,Adarsh Nagar Uppal,Hyderabad,17.4035087982535,78.5637248924034,,,Apartment,,,https://www.magicbricks.com/propertyDetails/3-BHK-2055-Sq-ft-Multistorey-Apartment-FOR-Sale-Adarsh-Nagar-Uppal-in-Hyderabad&id=4d423736373230383931
"3 BHK Apartment for Sale in JV Hills, Kondapur Hyderabad",,,JV Hills,Hyderabad,17.4723499,78.3528105,,,Apartment,,,https://www.magicbricks.com/propertyDetails/3-BHK-2150-Sq-ft-Multistorey-Apartment-FOR-Sale-JV-Hills-in-Hyderabad&id=4d423739313633353333
"2 BHK Apartment for Sale in Alkapur Township, Manikonda, Outer Ring Road Hyderabad",,,Alkapur Township,Hyderabad,17.3836594,78.3219475,,,Apartment,,,https://www.magicbricks.com/propertyDetails/2-BHK-1375-Sq-ft-Multistorey-Apartment-FOR-Sale-Alkapur-Township-in-Hyderabad&id=4d423634313738343535
"2 BHK Apartment for Sale in Hafeezpet, NH 9 Hyderabad",,,Hafeezpet,Hyderabad,17.485805,78.352671,,,Apartment,,,https://www.magicbricks.com/propertyDetails/2-BHK-1250-Sq-ft-Multistorey-Apartment-FOR-Sale-Hafeezpet-in-Hyderabad&id=4d423739383939353139
3 BHK Apartment for Sale in Chanda Nagar Hyderabad,,,,Hyderabad,17.495741,78.325436,,,Apartment,,,https://www.magicbricks.com/propertyDetails/3-BHK-2075-Sq-ft-Multistorey-Apartment-FOR-Sale-Chanda-Nagar-in-Hyderabad&id=4d423739303931313639
"3 BHK Apartment for Sale in Patighanpur, Outer Ring Road Hyderabad",,,Patighanpur,Hyderabad,17.5071923,78.2472294,,,Apartment,,,https://www.magicbricks.com/propertyDetails/3-BHK-2042-Sq-ft-Multistorey-Apartment-FOR-Sale-Patighanpur-in-Hyderabad&id=4d423830353639343435
3 BHK Apartment for Sale in Gachibowli Hyderabad,,,Gachibowli,Hyderabad,17.443563,78.3397746,,,Apartment,,,https://www.magicbricks.com/propertyDetails/3-BHK-1497-Sq-ft-Multistorey-Apartment-FOR-Sale-Gachibowli-in-Hyderabad&id=4d423731383530393737
"4 BHK Apartment for Sale in Dundigal, Outer Ring Road Hyderabad",,,Dundigal,Hyderabad,17.59155564157442,78.40143901763011,,,Apartment,,,https://www.magicbricks.com/propertyDetails/4-BHK-2165-Sq-ft-Multistorey-Apartment-FOR-Sale-Dundigal-in-Hyderabad&id=4d423737303836373039
"3 BHK Apartment for Sale in Moosapet, NH 9 Hyderabad",,,Moosapet,Hyderabad,17.466592691064132,78.41164038258505,,,Apartment,,,https://www.magicbricks.com/propertyDetails/3-BHK-1480-Sq-ft-Multistorey-Apartment-FOR-Sale-Moosapet-in-Hyderabad&id=4d423731343331343035
2 BHK Apartment for Sale in Prasanth Nagar Miyapur Hyderabad,,,Prasanth Nagar,Hyderabad,17.503856658935547,78.35360717773438,,,Apartment,,,https://www.magicbricks.com/propertyDetails/2-BHK-1200-Sq-ft-Multistorey-Apartment-FOR-Sale-Prasanth-Nagar-in-Hyderabad&id=4d423739313636303437
2 BHK Apartment for Sale in Osman Nagar Hyderabad,,,Osman Nagar,Hyderabad,17.4417842468164,78.2803618440924,,,Apartment,,,https://www.magicbricks.com/propertyDetails/2-BHK-1420-Sq-ft-Multistorey-Apartment-FOR-Sale-Osman-Nagar-in-Hyderabad&id=4d423830343236333339
2 BHK Apartment for Sale in Manikonda Jagir Hyderabad,,,Manikonda,Hyderabad,17.406845,78.3726835,,,Apartment,,,https://www.magicbricks.com/propertyDetails/2-BHK-1335-Sq-ft-Multistorey-Apartment-FOR-Sale-Manikonda-in-Hyderabad&id=4d423830313434393537
3 BHK Apartment for Sale in Puppalguda Hyderabad,,,Puppalaguda,Hyderabad,17.40754251,78.36320873,,,Apartment,,,https://www.magicbricks.com/propertyDetails/3-BHK-1500-Sq-ft-Multistorey-Apartment-FOR-Sale-Puppalaguda-in-Hyderabad&id=4d423739333834353431
"3 BHK Apartment for Sale in Kollur, Outer Ring Road Hyderabad",,,Kollur,Hyderabad,17.4344695,78.2425939,,,Apartment,,,https://www.magicbricks.com/propertyDetails/3-BHK-2075-Sq-ft-Multistorey-Apartment-FOR-Sale-Kollur-in-Hyderabad&id=4d423830363538343931
2 BHK Apartment for Sale in Navodaya Colony Kukatpally Hyderabad,,,Navodaya Colony Kukatpally,Hyderabad,17.492736,78.401235,,,Apartment,,,https://www.magicbricks.com/propertyDetails/2-BHK-1458-Sq-ft-Multistorey-Apartment-FOR-Sale-Navodaya-Colony-Kukatpally-in-Hyderabad&id=4d423738383132323531
3 BHK Apartment for Sale in Manikonda Jagir Hyderabad,,,Manikonda,Hyderabad,17.410971458035277,78.38691976508274,,,Apartment,,,https://www.magicbricks.com/propertyDetails/3-BHK-1750-Sq-ft-Multistorey-Apartment-FOR-Sale-Manikonda-in-Hyderabad&id=4d423732303831343035
"2 BHK Apartment for Sale in Miyapur, NH 9 Hyderabad",,,Miyapur,Hyderabad,17.5210925,78.3442965,,,Apartment,,,https://www.magicbricks.com/propertyDetails/2-BHK-1215-Sq-ft-Multistorey-Apartment-FOR-Sale-Miyapur-in-Hyderabad&id=4d423830363631313431
3 BHK Apartment for Sale in Miyapur Main Road Hyderabad,,,Miyapur Main Road,Hyderabad,17.5210925,78.3442965,,,Apartment,,,https://www.magicbricks.com/propertyDetails/3-BHK-1710-Sq-ft-Multistorey-Apartment-FOR-Sale-Miyapur-Main-Road-in-Hyderabad&id=4d423830363635383639
3 BHK Apartment for Sale in Shamshabad Hyderabad,,,Shamshabad,Hyderabad,17.2452845,78.43668,,,Apartment,,,https://www.magicbricks.com/propertyDetails/3-BHK-1588-Sq-ft-Multistorey-Apartment-FOR-Sale-Shamshabad-in-Hyderabad&id=4d423738353034353237
"2 BHK  House for Sale in Indresham, Bachuguda Hyderabad",,,Indresham,Hyderabad,17.569432,78.2535764,,,SingleFamilyResidence,,,https://www.magicbricks.com/propertyDetails/2-BHK-900-Sq-ft-Residential-House-FOR-Sale-Indresham-in-Hyderabad&id=4d423830323738323231
3 BHK Villa for Sale in Malkajgiri Hyderabad,,,,Hyderabad,17.448486,78.532389,,,SingleFamilyResidence,,,https://www.magicbricks.com/propertyDetails/3-BHK-1300-Sq-ft-Villa-FOR-Sale-Malkajgiri-in-Hyderabad&id=4d423739343037343439
"3 BHK Apartment for Sale in Kollur, Outer Ring Road Hyderabad",,,Kollur,Hyderabad,17.4344695,78.2425939,,,Apartment,,,https://www.magicbricks.com/propertyDetails/3-BHK-2030-Sq-ft-Multistorey-Apartment-FOR-Sale-Kollur-in-Hyderabad&id=4d423830353138323535
"3 BHK Apartment for Sale in Tellapur, Outer Ring Road Hyderabad",,,Tellapur,Hyderabad,17.4606196,78.2751625,,,Apartment,,,https://www.magicbricks.com/propertyDetails/3-BHK-1625-Sq-ft-Multistorey-Apartment-FOR-Sale-Tellapur-in-Hyderabad&id=4d423738383332363031
3 BHK Apartment for Sale in Srisailam Highway Hyderabad,,,Srisailam Highway,Hyderabad,17.282504188553,78.4717918916333,,,Apartment,,,https://www.magicbricks.com/propertyDetails/3-BHK-1760-Sq-ft-Multistorey-Apartment-FOR-Sale-Srisailam-Highway-in-Hyderabad&id=4d423736323531363937
"3 BHK Apartment for Sale in Tellapur, Outer Ring Road Hyderabad",,,Tellapur,Hyderabad,17.4606196,78.2751625,,,Apartment,,,https://www.magicbricks.com/propertyDetails/3-BHK-1625-Sq-ft-Multistorey-Apartment-FOR-Sale-Tellapur-in-Hyderabad&id=4d423738383332363031
2 BHK  House for Sale in Old Bowenpally Cross Road Hyderabad,,,Old Bowenpally Cross Road,Hyderabad,17.411361694335938,78.50621032714844,,,SingleFamilyResidence,,,https://www.magicbricks.com/propertyDetails/2-BHK-1024-Sq-ft-Residential-House-FOR-Sale-Old-Bowenpally-Cross-Road-in-Hyderabad&id=4d423739313037313131
3 BHK Apartment for Sale in Budwel Hyderabad,,,,Hyderabad,17.32601518,78.40801562,,,Apartment,,,https://www.magicbricks.com/propertyDetails/3-BHK-1576-Sq-ft-Multistorey-Apartment-FOR-Sale-Budwel-in-Hyderabad&id=4d423830333932373739
"3 BHK Apartment for Sale in Kollur, Outer Ring Road Hyderabad",,,Kollur,Hyderabad,17.510186222374376,78.24033766500145,,,Apartment,,,https://www.magicbricks.com/propertyDetails/3-BHK-1700-Sq-ft-Multistorey-Apartment-FOR-Sale-Kollur-in-Hyderabad&id=4d423830353538313439
"3 BHK Apartment for Sale in Uppal, NH 2 2 Hyderabad",,,Uppal,Hyderabad,17.3679283037609,78.4317103301914,,,Apartment,,,https://www.magicbricks.com/propertyDetails/3-BHK-1530-Sq-ft-Multistorey-Apartment-FOR-Sale-Uppal-in-Hyderabad&id=4d423738383439333431
"3 BHK Apartment for Sale in Barkatpura, Kachiguda, NH 2 2 Hyderabad",,,Barkatpura,Hyderabad,17.392577,78.49696,,,Apartment,,,https://www.magicbricks.com/propertyDetails/3-BHK-1580-Sq-ft-Multistorey-Apartment-FOR-Sale-Barkatpura-in-Hyderabad&id=4d423830343233323739
2 BHK  House for Sale in Meerpet Hyderabad,,,Meerpet,Hyderabad,17.39718246459961,78.59654235839844,,,SingleFamilyResidence,,,https://www.magicbricks.com/propertyDetails/2-BHK-140-Sq-yrd-Residential-House-FOR-Sale-Meerpet-in-Hyderabad&id=4d423731353630303539
2 BHK Apartment for Sale in Moti Nagar Erragadda Hyderabad,,,Moti Nagar,Hyderabad,17.4464575,78.4185155,,,Apartment,,,https://www.magicbricks.com/propertyDetails/2-BHK-1177-Sq-ft-Multistorey-Apartment-FOR-Sale-Moti-Nagar-in-Hyderabad&id=4d423830353734313433
"2 BHK  House for Sale in Isnapur, Outer Ring Road Hyderabad",,,Isnapur,Hyderabad,17.548253,78.205388,,,SingleFamilyResidence,,,https://www.magicbricks.com/propertyDetails/2-BHK-1800-Sq-ft-Residential-House-FOR-Sale-Isnapur-in-Hyderabad&id=4d423738353739343039
2 BHK Apartment for Sale in Moti Nagar Erragadda Hyderabad,,,Moti Nagar,Hyderabad,17.4464575,78.4185155,,,Apartment,,,https://www.magicbricks.com/propertyDetails/2-BHK-1177-Sq-ft-Multistorey-Apartment-FOR-Sale-Moti-Nagar-in-Hyderabad&id=4d423830353734313433
"3 BHK Apartment for Sale in Somajiguda, NH 9 Hyderabad",,,Somajiguda,Hyderabad,17.4259733,78.459914,,,Apartment,,,https://www.magicbricks.com/propertyDetails/3-BHK-1800-Sq-ft-Multistorey-Apartment-FOR-Sale-Somajiguda-in-Hyderabad&id=4d423830363136373635
2 BHK Apartment for Sale in Manikonda Jagir Hyderabad,,,Manikonda,Hyderabad,17.400897,78.377977,,,Apartment,,,https://www.magicbricks.com/propertyDetails/2-BHK-1190-Sq-ft-Multistorey-Apartment-FOR-Sale-Manikonda-in-Hyderabad&id=4d423739393339353439
"3 BHK Apartment for Sale in Patighanpur, Outer Ring Road Hyderabad",,,Patighanpur,Hyderabad,17.5071923,78.2472294,,,Apartment,,,https://www.magicbricks.com/propertyDetails/3-BHK-2042-Sq-ft-Multistorey-Apartment-FOR-Sale-Patighanpur-in-Hyderabad&id=4d423830363634303335
3 BHK Apartment for Sale in Bachupally Hyderabad,,,Bachupally,Hyderabad,17.551816,78.3860695,,,Apartment,,,https://www.magicbricks.com/propertyDetails/3-BHK-1353-Sq-ft-Multistorey-Apartment-FOR-Sale-Bachupally-in-Hyderabad&id=4d423730363130393439
2 BHK Apartment for Sale in Manikonda Jagir Hyderabad,,,Manikonda,Hyderabad,17.400897,78.377977,,,Apartment,,,https://www.magicbricks.com/propertyDetails/2-BHK-1190-Sq-ft-Multistorey-Apartment-FOR-Sale-Manikonda-in-Hyderabad&id=4d423739393339353439
3 BHK Apartment for Sale in Bachupally Hyderabad,,,Bachupally,Hyderabad,17.551816,78.3860695,,,Apartment,,,https://www.magicbricks.com/propertyDetails/3-BHK-1790-Sq-ft-Multistorey-Apartment-FOR-Sale-Bachupally-in-Hyderabad&id=4d423830343330333437
3 BHK Apartment for Sale in Bandlaguda Jagir Hyderabad,,,Bandlaguda Jagir,Hyderabad,17.348896243117505,78.38456617849161,,,Apartment,,,https://www.magicbricks.com/propertyDetails/3-BHK-1832-Sq-ft-Multistorey-Apartment-FOR-Sale-Bandlaguda-Jagir-in-Hyderabad&id=4d423830363638353539
3 BHK Apartment for Sale in Patancheruvu Hyderabad,,,Patancheru,Hyderabad,17.513125,78.259694,,,Apartment,,,https://www.magicbricks.com/propertyDetails/3-BHK-1828-Sq-ft-Multistorey-Apartment-FOR-Sale-Patancheru-in-Hyderabad&id=4d423830363630333133
3 BHK Apartment for Sale in Osman Nagar Hyderabad,,,Osman Nagar,Hyderabad,17.4841885,78.3906161,,,Apartment,,,https://www.magicbricks.com/propertyDetails/3-BHK-1975-Sq-ft-Multistorey-Apartment-FOR-Sale-Osman-Nagar-in-Hyderabad&id=4d423830363833383139
3 BHK Apartment for Sale in Bandlaguda Chandrayangutta Hyderabad,,,Bandlaguda Chandrayangutta,Hyderabad,17.3104261,78.4726409,,,Apartment,,,https://www.magicbricks.com/propertyDetails/3-BHK-1660-Sq-ft-Multistorey-Apartment-FOR-Sale-Bandlaguda-Chandrayanagutta-in-Hyderabad&id=4d423734393731363239
"2 BHK Apartment for Sale in Tellapur, Outer Ring Road Hyderabad",,,Tellapur,Hyderabad,17.46061897277832,78.27516174316406,,,Apartment,,,https://www.magicbricks.com/propertyDetails/2-BHK-1010-Sq-ft-Multistorey-Apartment-FOR-Sale-Tellapur-in-Hyderabad&id=4d423830353838353933
3 BHK Apartment for Sale in Jeedimetla Hyderabad,,,Jeedimetla,Hyderabad,17.51054719,78.46710171,,,Apartment,,,https://www.magicbricks.com/propertyDetails/3-BHK-2070-Sq-ft-Multistorey-Apartment-FOR-Sale-Jeedimetla-in-Hyderabad&id=4d423735373734303331
3 BHK Builder Floor for Sale in Gajularamaram Hyderabad,,,Gajularamaram,Hyderabad,17.342208862304688,78.36304473876953,,,Apartment,,,https://www.magicbricks.com/propertyDetails/3-BHK-2700-Sq-ft-Builder-Floor-Apartment-FOR-Sale-Gajularamaram-in-Hyderabad&id=4d423738393130393233
2 BHK Apartment for Sale in Kondapur Hyderabad,,,Kondapur,Hyderabad,17.4661387919325,78.3574087383959,,,Apartment,,,https://www.magicbricks.com/propertyDetails/2-BHK-1475-Sq-ft-Multistorey-Apartment-FOR-Sale-Kondapur-in-Hyderabad&id=4d423830323632343035
3 BHK Apartment for Sale in Mokila Hyderabad,,,Mokila,Hyderabad,17.440387725830078,78.19155883789062,,,Apartment,,,https://www.magicbricks.com/propertyDetails/3-BHK-1620-Sq-ft-Multistorey-Apartment-FOR-Sale-Mokila-in-Hyderabad&id=4d423830303138383031
2 BHK Apartment for Sale in Appa Junction Area Hyderabad,,,Appa junction,Hyderabad,17.350308,78.389608,,,Apartment,,,https://www.magicbricks.com/propertyDetails/2-BHK-1410-Sq-ft-Multistorey-Apartment-FOR-Sale-Appa-junction-in-Hyderabad&id=4d423739373233343739
2 BHK Apartment for Sale in Appa Junction Area Hyderabad,,,Appa junction,Hyderabad,17.350308,78.389608,,,Apartment,,,https://www.magicbricks.com/propertyDetails/2-BHK-1410-Sq-ft-Multistorey-Apartment-FOR-Sale-Appa-junction-in-Hyderabad&id=4d423739373233343739
"3 BHK Apartment for Sale in Tellapur, Outer Ring Road Hyderabad",,,Tellapur,Hyderabad,17.4606196,78.2751625,,,Apartment,,,https://www.magicbricks.com/propertyDetails/3-BHK-1785-Sq-ft-Multistorey-Apartment-FOR-Sale-Tellapur-in-Hyderabad&id=4d423737383730363437
2 BHK Apartment for Sale in Mokila Hyderabad,,,Mokila,Hyderabad,17.50639,78.35815,,,Apartment,,,https://www.magicbricks.com/propertyDetails/2-BHK-1585-Sq-ft-Multistorey-Apartment-FOR-Sale-Mokila-in-Hyderabad&id=4d423737353739373831
3 BHK Apartment for Sale in Bachupally Hyderabad,,,Bachupally,Hyderabad,17.551816,78.3860695,,,Apartment,,,https://www.magicbricks.com/propertyDetails/3-BHK-1353-Sq-ft-Multistorey-Apartment-FOR-Sale-Bachupally-in-Hyderabad&id=4d423737363337363339
3 BHK Apartment for Sale in Bachupally Hyderabad,,,Bachupally,Hyderabad,17.551816,78.3860695,,,Apartment,,,https://www.magicbricks.com/propertyDetails/3-BHK-1353-Sq-ft-Multistorey-Apartment-FOR-Sale-Bachupally-in-Hyderabad&id=4d423737363337363339
"3 BHK Apartment for Sale in Chikoti Gardens, Begumpet Hyderabad",,,Chikoti Gardens,Hyderabad,17.44336833,78.465545,,,Apartment,,,https://www.magicbricks.com/propertyDetails/3-BHK-1400-Sq-ft-Multistorey-Apartment-FOR-Sale-Chikoti-Gardens-in-Hyderabad&id=4d423738303634343037
3 BHK Apartment for Sale in Osman Nagar Hyderabad,,,Osman Nagar,Hyderabad,17.4344695,78.2425939,,,Apartment,,,https://www.magicbricks.com/propertyDetails/3-BHK-2030-Sq-ft-Multistorey-Apartment-FOR-Sale-Osman-Nagar-in-Hyderabad&id=4d423830363333363739
"3 BHK Apartment for Sale in Chikoti Gardens, Begumpet Hyderabad",,,Chikoti Gardens,Hyderabad,17.44336833,78.465545,,,Apartment,,,https://www.magicbricks.com/propertyDetails/3-BHK-1400-Sq-ft-Multistorey-Apartment-FOR-Sale-Chikoti-Gardens-in-Hyderabad&id=4d423738303634343037
3 BHK Apartment for Sale in Sainikpuri Hyderabad,,,Sainikpuri,Hyderabad,17.493515073418525,78.54511960042336,,,Apartment,,,https://www.magicbricks.com/propertyDetails/3-BHK-1780-Sq-ft-Multistorey-Apartment-FOR-Sale-Sainikpuri-in-Hyderabad&id=4d423739393334353139
3 BHK Apartment for Sale in Sainikpuri Hyderabad,,,Sainikpuri,Hyderabad,17.493515073418525,78.54511960042336,,,Apartment,,,https://www.magicbricks.com/propertyDetails/3-BHK-1780-Sq-ft-Multistorey-Apartment-FOR-Sale-Sainikpuri-in-Hyderabad&id=4d423739393334353139
"2 BHK  House for Sale in Anandbagh, Secunderabad, Moula Ali Road Hyderabad",,,Anandbagh,Hyderabad,17.4570461471948,78.541901251079,,,SingleFamilyResidence,,,https://www.magicbricks.com/propertyDetails/2-BHK-909-Sq-ft-Residential-House-FOR-Sale-Anandbagh-in-Hyderabad&id=4d423739353038383335
3 BHK Villa for Sale in Rampally Hyderabad,,,Rampally,Hyderabad,17.4633233,78.6346068,,,SingleFamilyResidence,,,https://www.magicbricks.com/propertyDetails/3-BHK-2387-Sq-ft-Villa-FOR-Sale-Rampally-in-Hyderabad&id=4d423634323235323035
 Apartment for Sale in Bandlaguda Jagir Hyderabad,,,Bandlaguda Jagir,Hyderabad,17.3571086350415,78.3948731204593,,,Apartment,,,https://www.magicbricks.com/propertyDetails/1450-Sq-ft-Multistorey-Apartment-FOR-Sale-Bandlaguda-Jagir-in-Hyderabad&id=4d423537313034373333
"2 BHK Apartment for Sale in Uppal, NH 2 2 Hyderabad",,,Uppal,Hyderabad,17.4035481,78.5636225,,,Apartment,,,https://www.magicbricks.com/propertyDetails/2-BHK-1330-Sq-ft-Multistorey-Apartment-FOR-Sale-Uppal-in-Hyderabad&id=4d423739323931393431
3 BHK Apartment for Sale in APSRTC Officers Colony Hyderabad,,,APSRTC Officers Colony,Hyderabad,17.335094451904297,78.39464569091797,,,Apartment,,,https://www.magicbricks.com/propertyDetails/3-BHK-1416-Sq-ft-Multistorey-Apartment-FOR-Sale-APSRTC-Officers-Colony-in-Hyderabad&id=4d423739363736383035
2 BHK  House for Sale in Rampally Hyderabad,,,Rampally,Hyderabad,17.4633233,78.6346068,,,SingleFamilyResidence,,,https://www.magicbricks.com/propertyDetails/2-BHK-167-Sq-yrd-Residential-House-FOR-Sale-Rampally-in-Hyderabad&id=4d423830343338333139
"5 BHK  House for Sale in Hayat Nagar, Rajendra Nagar, Outer Ring Road Hyderabad",,,Hayat Nagar,Hyderabad,17.343833923339844,78.37948608398438,,,SingleFamilyResidence,,,https://www.magicbricks.com/propertyDetails/5-BHK-1500-Sq-ft-Residential-House-FOR-Sale-Hayat-Nagar-in-Hyderabad&id=4d423830353432323131
2 BHK Apartment for Sale in Ameenpur Hyderabad,,,,Hyderabad,17.5265125876332,78.3316496153237,,,Apartment,,,https://www.magicbricks.com/propertyDetails/2-BHK-1333-Sq-ft-Multistorey-Apartment-FOR-Sale-Ameenpur-in-Hyderabad&id=4d423830343439373737
2 BHK Apartment for Sale in Nalagandla Hyderabad,,,Nallagandla,Hyderabad,17.4633553,78.306611,,,Apartment,,,https://www.magicbricks.com/propertyDetails/2-BHK-1235-Sq-ft-Multistorey-Apartment-FOR-Sale-Nallagandla-in-Hyderabad&id=4d423739383937343139
2 BHK  House for Sale in Nagaram Hyderabad,,,Nagaram,Hyderabad,17.34383773803711,78.37924194335938,,,SingleFamilyResidence,,,https://www.magicbricks.com/propertyDetails/2-BHK-1200-Sq-ft-Residential-House-FOR-Sale-Nagaram-in-Hyderabad&id=4d423739343732373237
2 BHK  House for Sale in Kistareddypet Hyderabad,,,Kistareddypet,Hyderabad,17.518394470214844,78.30167388916016,,,SingleFamilyResidence,,,https://www.magicbricks.com/propertyDetails/2-BHK-1350-Sq-ft-Residential-House-FOR-Sale-Kistareddypet-in-Hyderabad&id=4d423739393032393633
3 BHK Apartment for Sale in Medipally Hyderabad,,,Medipally,Hyderabad,17.4068697055425,78.6001011781133,,,Apartment,,,https://www.magicbricks.com/propertyDetails/3-BHK-1467-Sq-ft-Multistorey-Apartment-FOR-Sale-Medipally-in-Hyderabad&id=4d423739363932393731
3 BHK Apartment for Sale in Hyderguda Hyderabad,,,Hyderguda,Hyderabad,17.3972935,78.477957,,,Apartment,,,https://www.magicbricks.com/propertyDetails/3-BHK-1660-Sq-ft-Multistorey-Apartment-FOR-Sale-Hyderguda-in-Hyderabad&id=4d423732383931383039
3 BHK Apartment for Sale in Nizampet Hyderabad,,,Nizampet,Hyderabad,17.551816,78.3860695,,,Apartment,,,https://www.magicbricks.com/propertyDetails/3-BHK-1985-Sq-ft-Multistorey-Apartment-FOR-Sale-Nizampet-in-Hyderabad&id=4d423739363436323831
4 BHK  House for Sale in Kistareddypet Hyderabad,,,Kistareddypet,Hyderabad,17.5422059,78.2956215,,,SingleFamilyResidence,,,https://www.magicbricks.com/propertyDetails/4-BHK-1100-Sq-ft-Residential-House-FOR-Sale-Kistareddypet-in-Hyderabad&id=4d423830343332333431
3 BHK Apartment for Sale in Manikonda Jagir Hyderabad,,,Manikonda,Hyderabad,17.4125038126094,78.3687404301165,,,Apartment,,,https://www.magicbricks.com/propertyDetails/3-BHK-1609-Sq-ft-Multistorey-Apartment-FOR-Sale-Manikonda-in-Hyderabad&id=4d423830353435343433
3 BHK Builder Floor for Sale in Ravindra Nagar Habsiguda Hyderabad,,,Ravindra Nagar Habsiguda,Hyderabad,17.407882690429688,78.5408935546875,,,Apartment,,,https://www.magicbricks.com/propertyDetails/3-BHK-1650-Sq-ft-Builder-Floor-Apartment-FOR-Sale-Ravindra-Nagar-Habsiguda-in-Hyderabad&id=4d423830323939303531
"3 BHK Apartment for Sale in Tellapur, Outer Ring Road Hyderabad",,,Tellapur,Hyderabad,17.438560240265222,78.28732316476481,,,Apartment,,,https://www.magicbricks.com/propertyDetails/3-BHK-1500-Sq-ft-Multistorey-Apartment-FOR-Sale-Tellapur-in-Hyderabad&id=4d423736303737313731
3 BHK Apartment for Sale in Budwel Hyderabad,,,,Hyderabad,17.32601518,78.40801562,,,Apartment,,,https://www.magicbricks.com/propertyDetails/3-BHK-1576-Sq-ft-Multistorey-Apartment-FOR-Sale-Budwel-in-Hyderabad&id=4d423830353235373031
3 BHK Apartment for Sale in Nizampet Hyderabad,,,Nizampet,Hyderabad,17.492736,78.401235,,,Apartment,,,https://www.magicbricks.com/propertyDetails/3-BHK-1675-Sq-ft-Multistorey-Apartment-FOR-Sale-Nizampet-in-Hyderabad&id=4d423739383632343839
3 BHK Builder Floor for Sale in golden stone Hyderabad,,,,Hyderabad,,,,,Apartment,,,https://www.magicbricks.com/propertyDetails/3-BHK-1650-Sq-ft-Builder-Floor-Apartment-FOR-Sale-in-Hyderabad&id=4d423738383530383631
3 BHK Villa for Sale in Ramachandrapuram Hyderabad,,,RC Puram (Ramachandrapuram),Hyderabad,17.534414291381836,78.28722381591797,,,SingleFamilyResidence,,,https://www.magicbricks.com/propertyDetails/3-BHK-1500-Sq-ft-Villa-FOR-Sale-Ramachandra-Puram-in-Hyderabad&id=4d423737393931383739
3 BHK Apartment for Sale in Serilingampalle M Hyderabad,,,Serilingampally,Hyderabad,17.47355,78.33678,,,Apartment,,,https://www.magicbricks.com/propertyDetails/3-BHK-1710-Sq-ft-Multistorey-Apartment-FOR-Sale-Serilingampally-in-Hyderabad&id=4d423537303639313237
2 BHK Apartment for Sale in Shaikpet Hyderabad,,,Shaikpet,Hyderabad,17.404547,78.401061,,,Apartment,,,https://www.magicbricks.com/propertyDetails/2-BHK-1285-Sq-ft-Multistorey-Apartment-FOR-Sale-Shaikpet-in-Hyderabad&id=4d423739333737393333
3 BHK Apartment for Sale in Osman Nagar Hyderabad,,,Osman Nagar,Hyderabad,17.449577,78.288202,,,Apartment,,,https://www.magicbricks.com/propertyDetails/3-BHK-1580-Sq-ft-Multistorey-Apartment-FOR-Sale-Osman-Nagar-in-Hyderabad&id=4d423738363832383237
4 BHK  House for Sale in Dammaiguda Hyderabad,,,Dammaiguda,Hyderabad,17.5012465,78.5997209,,,SingleFamilyResidence,,,https://www.magicbricks.com/propertyDetails/4-BHK-1200-Sq-ft-Residential-House-FOR-Sale-Dammaiguda-in-Hyderabad&id=4d423830363130383037
"3 BHK Apartment for Sale in Kollur, Outer Ring Road Hyderabad",,,Kollur,Hyderabad,17.44988163,78.24285109,,,Apartment,,,https://www.magicbricks.com/propertyDetails/3-BHK-1820-Sq-ft-Multistorey-Apartment-FOR-Sale-Kollur-in-Hyderabad&id=4d423830333439373331
3 BHK Apartment for Sale in Patancheruvu Hyderabad,,,Patancheru,Hyderabad,17.513124465942383,78.25969696044922,,,Apartment,,,https://www.magicbricks.com/propertyDetails/3-BHK-1828-Sq-ft-Multistorey-Apartment-FOR-Sale-Patancheru-in-Hyderabad&id=4d423830363630333133
"3 BHK Apartment for Sale in Miyapur, NH 9 Hyderabad",,,Miyapur,Hyderabad,17.5210925,78.3442965,,,Apartment,,,https://www.magicbricks.com/propertyDetails/3-BHK-1509-Sq-ft-Multistorey-Apartment-FOR-Sale-Miyapur-in-Hyderabad&id=4d423830353835313133
6 BHK  House for Sale in Santosh Nagar Hyderabad,,,Santosh Nagar,Hyderabad,17.34882354736328,78.50852966308594,,,SingleFamilyResidence,,,https://www.magicbricks.com/propertyDetails/6-BHK-984-Sq-ft-Residential-House-FOR-Sale-Santosh-Nagar-in-Hyderabad&id=4d423738383433363433
3 BHK Apartment for Sale in Bachupally Hyderabad,,,Bachupally,Hyderabad,17.551816,78.3860695,,,Apartment,,,https://www.magicbricks.com/propertyDetails/3-BHK-1760-Sq-ft-Multistorey-Apartment-FOR-Sale-Bachupally-in-Hyderabad&id=4d423830333336353135
"2 BHK Apartment for Sale in Pragathi Nagar, Kukatpally Hyderabad",,,Pragathi Nagar,Hyderabad,17.539549,78.40937,,,Apartment,,,https://www.magicbricks.com/propertyDetails/2-BHK-1260-Sq-ft-Multistorey-Apartment-FOR-Sale-Pragathi-Nagar-in-Hyderabad&id=4d423830303335303035
"2 BHK Apartment for Sale in Pragathi Nagar, Kukatpally Hyderabad",,,Pragathi Nagar,Hyderabad,17.539549,78.40937,,,Apartment,,,https://www.magicbricks.com/propertyDetails/2-BHK-1260-Sq-ft-Multistorey-Apartment-FOR-Sale-Pragathi-Nagar-in-Hyderabad&id=4d423830303335303035
3 BHK Apartment for Sale in Attapur Hyderabad,,,Attapur,Hyderabad,17.3679283037609,78.4317103301914,,,Apartment,,,https://www.magicbricks.com/propertyDetails/3-BHK-1635-Sq-ft-Multistorey-Apartment-FOR-Sale-Attapur-in-Hyderabad&id=4d423739353035313239
4 BHK  House for Sale in Advocate colony Hyderabad,,,,Hyderabad,,,,,SingleFamilyResidence,,,https://www.magicbricks.com/propertyDetails/4-BHK-4500-Sq-ft-Residential-House-FOR-Sale-in-Hyderabad&id=4d423739393038333637
3 BHK  House for Sale in BN Reddy Nagar Hyderabad,,,,Hyderabad,17.310728073120117,78.55907440185547,,,SingleFamilyResidence,,,https://www.magicbricks.com/propertyDetails/3-BHK-133-Sq-yrd-Residential-House-FOR-Sale-BN-Reddy-Nagar-in-Hyderabad&id=4d423739393330303333
3 BHK  House for Sale in BN Reddy Nagar Hyderabad,,,,Hyderabad,17.310728073120117,78.55907440185547,,,SingleFamilyResidence,,,https://www.magicbricks.com/propertyDetails/3-BHK-133-Sq-yrd-Residential-House-FOR-Sale-BN-Reddy-Nagar-in-Hyderabad&id=4d423739393330303333
2 BHK Apartment for Sale in Nalagandla Hyderabad,,,Nallagandla,Hyderabad,17.46235977,78.3035209,,,Apartment,,,https://www.magicbricks.com/propertyDetails/2-BHK-1280-Sq-ft-Multistorey-Apartment-FOR-Sale-Nallagandla-in-Hyderabad&id=4d423738353138363435
6 BHK  House for Sale in Medchal Hyderabad,,,Medchal,Hyderabad,17.631427764892578,78.48319244384766,,,SingleFamilyResidence,,,https://www.magicbricks.com/propertyDetails/6-BHK-2400-Sq-ft-Residential-House-FOR-Sale-Medchal-in-Hyderabad&id=4d423733363034383739
6 BHK  House for Sale in Medchal Hyderabad,,,Medchal,Hyderabad,17.631427764892578,78.48319244384766,,,SingleFamilyResidence,,,https://www.magicbricks.com/propertyDetails/6-BHK-2400-Sq-ft-Residential-House-FOR-Sale-Medchal-in-Hyderabad&id=4d423733363034383739
2 BHK Apartment for Sale in Yapral Hyderabad,,,Yapral,Hyderabad,17.5117882,78.5170719,,,Apartment,,,https://www.magicbricks.com/propertyDetails/2-BHK-1430-Sq-ft-Multistorey-Apartment-FOR-Sale-Yapral-in-Hyderabad&id=4d423739373434373235
"3 BHK Apartment for Sale in Miyapur, NH 9 Hyderabad",,,Miyapur,Hyderabad,17.5210925,78.3442965,,,Apartment,,,https://www.magicbricks.com/propertyDetails/3-BHK-1588-Sq-ft-Multistorey-Apartment-FOR-Sale-Miyapur-in-Hyderabad&id=4d423734383333333131
4 BHK  House for Sale in Nagaram Hyderabad,,,Nagaram,Hyderabad,17.35722076,79.03221597,,,SingleFamilyResidence,,,https://www.magicbricks.com/propertyDetails/4-BHK-2300-Sq-ft-Residential-House-FOR-Sale-Nagaram-in-Hyderabad&id=4d423830333736333431
"3 BHK  House for Sale in Saroornagar, NH 9 Hyderabad",,,Saroornagar,Hyderabad,17.3560377746143,78.5383971701047,,,SingleFamilyResidence,,,https://www.magicbricks.com/propertyDetails/3-BHK-1500-Sq-ft-Residential-House-FOR-Sale-Saroornagar-in-Hyderabad&id=4d423731323039313933
"3 BHK Apartment for Sale in Muthangi, NH 9 Hyderabad",,,Muthangi,Hyderabad,17.513125,78.259694,,,Apartment,,,https://www.magicbricks.com/propertyDetails/3-BHK-1585-Sq-ft-Multistorey-Apartment-FOR-Sale-Muthangi-in-Hyderabad&id=4d423738303937343333
"3 BHK Apartment for Sale in Kollur, Outer Ring Road Hyderabad",,,Kollur,Hyderabad,17.44988163,78.24285109,,,Apartment,,,https://www.magicbricks.com/propertyDetails/3-BHK-1900-Sq-ft-Multistorey-Apartment-FOR-Sale-Kollur-in-Hyderabad&id=4d423734303033363935
"3 BHK Villa for Sale in Dundigal, Outer Ring Road Hyderabad",,,Dundigal,Hyderabad,17.6206150860088,78.4085952054499,,,SingleFamilyResidence,,,https://www.magicbricks.com/propertyDetails/3-BHK-2360-Sq-ft-Villa-FOR-Sale-Dundigal-in-Hyderabad&id=4d423830333136313439
"3 BHK Apartment for Sale in Kollur, Outer Ring Road Hyderabad",,,Kollur,Hyderabad,17.44988163,78.24285109,,,Apartment,,,https://www.magicbricks.com/propertyDetails/3-BHK-1900-Sq-ft-Multistorey-Apartment-FOR-Sale-Kollur-in-Hyderabad&id=4d423734303033363935
2 BHK Apartment for Sale in Suchitra Hyderabad,,,,Hyderabad,17.502304077148438,78.47151947021484,,,Apartment,,,https://www.magicbricks.com/propertyDetails/2-BHK-1355-Sq-ft-Multistorey-Apartment-FOR-Sale-Suchitra-in-Hyderabad&id=4d423737393333383035
"3 BHK Apartment for Sale in Kollur, Outer Ring Road Hyderabad",,,Kollur,Hyderabad,17.4344695,78.2425939,,,Apartment,,,https://www.magicbricks.com/propertyDetails/3-BHK-1880-Sq-ft-Multistorey-Apartment-FOR-Sale-Kollur-in-Hyderabad&id=4d423737363330313037
"3 BHK Apartment for Sale in Kollur, Outer Ring Road Hyderabad",,,Kollur,Hyderabad,17.4344695,78.2425939,,,Apartment,,,https://www.magicbricks.com/propertyDetails/3-BHK-1880-Sq-ft-Multistorey-Apartment-FOR-Sale-Kollur-in-Hyderabad&id=4d423737363330313037
3 BHK Apartment for Sale in Chanda Nagar Hyderabad,,,,Hyderabad,17.4900588,78.3258354,,,Apartment,,,https://www.magicbricks.com/propertyDetails/3-BHK-1750-Sq-ft-Multistorey-Apartment-FOR-Sale-Chanda-Nagar-in-Hyderabad&id=4d423735373939353039
3 BHK Apartment for Sale in Ravindra Nagar Habsiguda Hyderabad,,,Ravindra Nagar Habsiguda,Hyderabad,17.333757400512695,78.40644836425781,,,Apartment,,,https://www.magicbricks.com/propertyDetails/3-BHK-1951-Sq-ft-Multistorey-Apartment-FOR-Sale-Ravindra-Nagar-Habsiguda-in-Hyderabad&id=4d423732353334333931
3 BHK Apartment for Sale in Appa Junction Area Hyderabad,,,Appa junction,Hyderabad,17.34958,78.360125,,,Apartment,,,https://www.magicbricks.com/propertyDetails/3-BHK-1628-Sq-ft-Multistorey-Apartment-FOR-Sale-Appa-junction-in-Hyderabad&id=4d423736343432303835
3 BHK Apartment for Sale in Attapur Hyderabad,,,Attapur,Hyderabad,17.34220314025879,78.36284637451172,,,Apartment,,,https://www.magicbricks.com/propertyDetails/3-BHK-1660-Sq-ft-Multistorey-Apartment-FOR-Sale-Attapur-in-Hyderabad&id=4d423538313531353035
"4 BHK  House for Sale in Boduppal, NH 2 2 Hyderabad",,,Boduppal,Hyderabad,17.4191334463594,78.5808307414651,,,SingleFamilyResidence,,,https://www.magicbricks.com/propertyDetails/4-BHK-2200-Sq-ft-Residential-House-FOR-Sale-Boduppal-in-Hyderabad&id=4d423734313136383333
"2 BHK Apartment for Sale in Tellapur, Outer Ring Road Hyderabad",,,Tellapur,Hyderabad,17.4606196,78.2751625,,,Apartment,,,https://www.magicbricks.com/propertyDetails/2-BHK-1253-Sq-ft-Multistorey-Apartment-FOR-Sale-Tellapur-in-Hyderabad&id=4d423734393038313333
3 BHK Apartment for Sale in Osman Nagar Hyderabad,,,Osman Nagar,Hyderabad,17.4344695,78.2425939,,,Apartment,,,https://www.magicbricks.com/propertyDetails/3-BHK-2030-Sq-ft-Multistorey-Apartment-FOR-Sale-Osman-Nagar-in-Hyderabad&id=4d423830363736323437
"2 BHK Apartment for Sale in Tellapur, Outer Ring Road Hyderabad",,,Tellapur,Hyderabad,17.4606196,78.2751625,,,Apartment,,,https://www.magicbricks.com/propertyDetails/2-BHK-1253-Sq-ft-Multistorey-Apartment-FOR-Sale-Tellapur-in-Hyderabad&id=4d423734393038313333
2 BHK Apartment for Sale in Appa Junction Area Hyderabad,,,Appa junction,Hyderabad,17.34958,78.360125,,,Apartment,,,https://www.magicbricks.com/propertyDetails/2-BHK-1279-Sq-ft-Multistorey-Apartment-FOR-Sale-Appa-junction-in-Hyderabad&id=4d423830323039353235
3 BHK  House for Sale in Rameshwar Banda Hyderabad,,,Rameshwar Banda,Hyderabad,17.559335708618164,78.28052520751953,,,SingleFamilyResidence,,,https://www.magicbricks.com/propertyDetails/3-BHK-2100-Sq-ft-Residential-House-FOR-Sale-Rameshwar-Banda-in-Hyderabad&id=4d423738323134393735
3 BHK Apartment for Sale in Osman Nagar Hyderabad,,,Osman Nagar,Hyderabad,17.4417842468164,78.2803618440924,,,Apartment,,,https://www.magicbricks.com/propertyDetails/3-BHK-1824-Sq-ft-Multistorey-Apartment-FOR-Sale-Osman-Nagar-in-Hyderabad&id=4d423830343731343737
"2 BHK Apartment for Sale in Tellapur, Outer Ring Road Hyderabad",,,Tellapur,Hyderabad,17.45301586,78.27173549,,,Apartment,,,https://www.magicbricks.com/propertyDetails/2-BHK-1350-Sq-ft-Multistorey-Apartment-FOR-Sale-Tellapur-in-Hyderabad&id=4d423737373034343937
"3 BHK Apartment for Sale in Tellapur, Outer Ring Road Hyderabad",,,Tellapur,Hyderabad,17.44214067,78.27636715,,,Apartment,,,https://www.magicbricks.com/propertyDetails/3-BHK-2100-Sq-ft-Multistorey-Apartment-FOR-Sale-Tellapur-in-Hyderabad&id=4d423639383437393535
"3 BHK Apartment for Sale in Tellapur, Outer Ring Road Hyderabad",,,Tellapur,Hyderabad,17.46061897277832,78.27516174316406,,,Apartment,,,https://www.magicbricks.com/propertyDetails/3-BHK-1755-Sq-ft-Multistorey-Apartment-FOR-Sale-Tellapur-in-Hyderabad&id=4d423739313434383939
2 BHK Apartment for Sale in Gachibowli Hyderabad,,,Gachibowli,Hyderabad,17.443563,78.3397746,,,Apartment,,,https://www.magicbricks.com/propertyDetails/2-BHK-1115-Sq-ft-Multistorey-Apartment-FOR-Sale-Gachibowli-in-Hyderabad&id=4d423830353936383539
3 BHK Apartment for Sale in SP Nagar Moula Ali Hyderabad,,,S.P.Nagar,Hyderabad,17.4663946874385,78.5626186160956,,,Apartment,,,https://www.magicbricks.com/propertyDetails/3-BHK-1900-Sq-ft-Multistorey-Apartment-FOR-Sale-S.P.Nagar-in-Hyderabad&id=4d423830333434303435
2 BHK Apartment for Sale in Nanakaramguda Hyderabad,,,Nanakram Guda,Hyderabad,17.41748974,78.34242764,,,Apartment,,,https://www.magicbricks.com/propertyDetails/2-BHK-1574-Sq-ft-Multistorey-Apartment-FOR-Sale-Nanakram-Guda-in-Hyderabad&id=4d423734303431383337
undefined,,,Shamshabad,Hyderabad,17.29314,78.41461,,,Apartment,,,https://www.magicbricks.com/propertyDetails/3-BHK-1681-Sq-ft-Multistorey-Apartment-FOR-Sale-Shamshabad-in-Hyderabad&id=4d423732333231373035
2 BHK Apartment for Sale in Nalagandla Hyderabad,,,Nallagandla,Hyderabad,17.4633553,78.306611,,,Apartment,,,https://www.magicbricks.com/propertyDetails/2-BHK-1255-Sq-ft-Multistorey-Apartment-FOR-Sale-Nallagandla-in-Hyderabad&id=4d423739393931343637
3 BHK Apartment for Sale in Bachupally Hyderabad,,,Bachupally,Hyderabad,17.551816,78.3860695,,,Apartment,,,https://www.magicbricks.com/propertyDetails/3-BHK-1353-Sq-ft-Multistorey-Apartment-FOR-Sale-Bachupally-in-Hyderabad&id=4d423736383135353531
3 BHK Apartment for Sale in Bachupally Hyderabad,,,Bachupally,Hyderabad,17.551816,78.3860695,,,Apartment,,,https://www.magicbricks.com/propertyDetails/3-BHK-1617-Sq-ft-Multistorey-Apartment-FOR-Sale-Bachupally-in-Hyderabad&id=4d423830363231393739
2 BHK Apartment for Sale in TNGOS Colony Hyderabad,,,,Hyderabad,17.443563,78.3397746,,,Apartment,,,https://www.magicbricks.com/propertyDetails/2-BHK-1115-Sq-ft-Multistorey-Apartment-FOR-Sale-TNGOS-Colony-in-Hyderabad&id=4d423830323937333635
2 BHK Apartment for Sale in Hitech City Hyderabad,,,Hitech City,Hyderabad,17.469453428935314,78.40857621349411,,,Apartment,,,https://www.magicbricks.com/propertyDetails/2-BHK-1250-Sq-ft-Multistorey-Apartment-FOR-Sale-Hitech-City-in-Hyderabad&id=4d423737363237373037
2 BHK Apartment for Sale in Kondapur Hyderabad,,,Kondapur,Hyderabad,17.46965674,78.33441842,,,Apartment,,,https://www.magicbricks.com/propertyDetails/2-BHK-1410-Sq-ft-Multistorey-Apartment-FOR-Sale-Kondapur-in-Hyderabad&id=4d423739343138313135
2 BHK Apartment for Sale in Hitech City Hyderabad,,,Hitech City,Hyderabad,17.447917,78.376176,,,Apartment,,,https://www.magicbricks.com/propertyDetails/2-BHK-1262-Sq-ft-Multistorey-Apartment-FOR-Sale-Hitech-City-in-Hyderabad&id=4d423737353334383635
4 BHK  House for Sale in Beeramguda Main Road Hyderabad,,,Beeramguda Main Road,Hyderabad,17.51572268,78.30124031,,,SingleFamilyResidence,,,https://www.magicbricks.com/propertyDetails/4-BHK-2400-Sq-ft-Residential-House-FOR-Sale-Beeramguda-Main-Road-in-Hyderabad&id=4d423738353637333837
3 BHK Apartment for Sale in Gachibowli Hyderabad,,,Gachibowli,Hyderabad,17.443563,78.3397746,,,Apartment,,,https://www.magicbricks.com/propertyDetails/3-BHK-1733-Sq-ft-Multistorey-Apartment-FOR-Sale-Gachibowli-in-Hyderabad&id=4d423737393039353133
2 BHK Apartment for Sale in Chanda Nagar Hyderabad,,,,Hyderabad,17.5049063,78.3276881,,,Apartment,,,https://www.magicbricks.com/propertyDetails/2-BHK-1295-Sq-ft-Multistorey-Apartment-FOR-Sale-Chanda-Nagar-in-Hyderabad&id=4d423735353837323137
undefined,,,Habsiguda,Hyderabad,17.42557864801138,78.54874812698385,,,Apartment,,,https://www.magicbricks.com/propertyDetails/3-BHK-1870-Sq-ft-Multistorey-Apartment-FOR-Sale-Habsiguda-in-Hyderabad&id=4d423739303537393931
3 BHK Apartment for Sale in Hyderguda Hyderabad,,,Hyderguda,Hyderabad,17.39907,78.48326,,,Apartment,,,https://www.magicbricks.com/propertyDetails/3-BHK-1100-Sq-ft-Multistorey-Apartment-FOR-Sale-Hyderguda-in-Hyderabad&id=4d423632373036313235
3 BHK Apartment for Sale in Hyderguda Hyderabad,,,Hyderguda,Hyderabad,17.39907,78.48326,,,Apartment,,,https://www.magicbricks.com/propertyDetails/3-BHK-1100-Sq-ft-Multistorey-Apartment-FOR-Sale-Hyderguda-in-Hyderabad&id=4d423632373036313235
2 BHK Apartment for Sale in Puppalguda Hyderabad,,,Puppalaguda,Hyderabad,17.40747983354049,78.35934312365998,,,Apartment,,,https://www.magicbricks.com/propertyDetails/2-BHK-1326-Sq-ft-Multistorey-Apartment-FOR-Sale-Puppalaguda-in-Hyderabad&id=4d423830313639313231
3 BHK Apartment for Sale in Mallapur Hyderabad,,,,Hyderabad,17.447535,78.569845,,,Apartment,,,https://www.magicbricks.com/propertyDetails/3-BHK-1625-Sq-ft-Multistorey-Apartment-FOR-Sale-Mallapur-in-Hyderabad&id=4d423830313333353031
3 BHK Apartment for Sale in Nalagandla Hyderabad,,,Nallagandla,Hyderabad,17.4633553,78.306611,,,Apartment,,,https://www.magicbricks.com/propertyDetails/3-BHK-1435-Sq-ft-Multistorey-Apartment-FOR-Sale-Nallagandla-in-Hyderabad&id=4d423830303334323531
3 BHK Apartment for Sale in Neknampur Hyderabad,,,Neknampur,Hyderabad,17.39060178815,78.377278950744,,,Apartment,,,https://www.magicbricks.com/propertyDetails/3-BHK-1425-Sq-ft-Multistorey-Apartment-FOR-Sale-Neknampur-in-Hyderabad&id=4d423830343738393133
"2 BHK Apartment for Sale in Financial District, Nanakram Guda Hyderabad",,,Financial District,Hyderabad,17.443563,78.3397746,,,Apartment,,,https://www.magicbricks.com/propertyDetails/2-BHK-1100-Sq-ft-Multistorey-Apartment-FOR-Sale-Financial-District-in-Hyderabad&id=4d423735353235313439
"2 BHK Apartment for Sale in Financial District, Nanakram Guda Hyderabad",,,Financial District,Hyderabad,17.443563,78.3397746,,,Apartment,,,https://www.magicbricks.com/propertyDetails/2-BHK-1100-Sq-ft-Multistorey-Apartment-FOR-Sale-Financial-District-in-Hyderabad&id=4d423735353235313439
3 BHK Apartment for Sale in Lingampally Serilingampalle Hyderabad,,,Lingampally Serilingampalle,Hyderabad,17.50058595,78.31759003,,,Apartment,,,https://www.magicbricks.com/propertyDetails/3-BHK-1438-Sq-ft-Multistorey-Apartment-FOR-Sale-Lingampally-Serilingampally-in-Hyderabad&id=4d423739363730393631
undefined,,,Puppalaguda,Hyderabad,17.39985125,78.36982698,,,Apartment,,,https://www.magicbricks.com/propertyDetails/2-BHK-1395-Sq-ft-Multistorey-Apartment-FOR-Sale-Puppalaguda-in-Hyderabad&id=4d423830353031393039
2 BHK Apartment for Sale in Gopanpalle Hyderabad,,,Gopanapalli,Hyderabad,17.4577581101491,78.312128616532,,,Apartment,,,https://www.magicbricks.com/propertyDetails/2-BHK-1350-Sq-ft-Multistorey-Apartment-FOR-Sale-Gopanapalli-in-Hyderabad&id=4d423739343631353431
2 BHK Apartment for Sale in Gopanpalle Hyderabad,,,Gopanapalli,Hyderabad,17.4577581101491,78.312128616532,,,Apartment,,,https://www.magicbricks.com/propertyDetails/2-BHK-1350-Sq-ft-Multistorey-Apartment-FOR-Sale-Gopanapalli-in-Hyderabad&id=4d423739343631353431
"3 BHK Apartment for Sale in Miyapur, NH 9 Hyderabad",,,Miyapur,Hyderabad,17.5265125876332,78.3316496153237,,,Apartment,,,https://www.magicbricks.com/propertyDetails/3-BHK-1333-Sq-ft-Multistorey-Apartment-FOR-Sale-Miyapur-in-Hyderabad&id=4d423734313434333339
"3 BHK Apartment for Sale in Kukatpally, NH 9 Hyderabad",,,Kukatpally,Hyderabad,17.4931599197008,78.4022774070356,,,Apartment,,,https://www.magicbricks.com/propertyDetails/3-BHK-1865-Sq-ft-Multistorey-Apartment-FOR-Sale-Kukatpally-in-Hyderabad&id=4d423737393032393035
"3 BHK Apartment for Sale in Moosapet, NH 9 Hyderabad",,,Moosapet,Hyderabad,17.4931599197008,78.4022774070356,,,Apartment,,,https://www.magicbricks.com/propertyDetails/3-BHK-1975-Sq-ft-Multistorey-Apartment-FOR-Sale-Moosapet-in-Hyderabad&id=4d423639313839353039
2 BHK Apartment for Sale in Nanakaramguda Hyderabad,,,Nanakram Guda,Hyderabad,17.443563,78.3397746,,,Apartment,,,https://www.magicbricks.com/propertyDetails/2-BHK-1295-Sq-ft-Multistorey-Apartment-FOR-Sale-Nanakram-Guda-in-Hyderabad&id=4d423735383333373339
"2 BHK Apartment for Sale in Tellapur, Outer Ring Road Hyderabad",,,Tellapur,Hyderabad,17.4606196,78.2751625,,,Apartment,,,https://www.magicbricks.com/propertyDetails/2-BHK-1355-Sq-ft-Multistorey-Apartment-FOR-Sale-Tellapur-in-Hyderabad&id=4d423735383438313231
2 BHK Apartment for Sale in Gachibowli Hyderabad,,,Gachibowli,Hyderabad,17.3899902,78.341301,,,Apartment,,,https://www.magicbricks.com/propertyDetails/2-BHK-1350-Sq-ft-Multistorey-Apartment-FOR-Sale-Gachibowli-in-Hyderabad&id=4d423738363037323137
"2 BHK Apartment for Sale in Tellapur, Outer Ring Road Hyderabad",,,Tellapur,Hyderabad,17.4606196,78.2751625,,,Apartment,,,https://www.magicbricks.com/propertyDetails/2-BHK-1253-Sq-ft-Multistorey-Apartment-FOR-Sale-Tellapur-in-Hyderabad&id=4d423739393836313739
3 BHK Apartment for Sale in Pedda Amberpet Hyderabad,,,,Hyderabad,17.320587158203125,78.63780975341797,,,Apartment,,,https://www.magicbricks.com/propertyDetails/3-BHK-1420-Sq-ft-Multistorey-Apartment-FOR-Sale-Pedda-Amberpet-in-Hyderabad&id=4d423830353339303837
3 BHK Apartment for Sale in Pedda Amberpet Hyderabad,,,,Hyderabad,17.320587158203125,78.63780975341797,,,Apartment,,,https://www.magicbricks.com/propertyDetails/3-BHK-1420-Sq-ft-Multistorey-Apartment-FOR-Sale-Pedda-Amberpet-in-Hyderabad&id=4d423830353339303837
2 BHK Apartment for Sale in Puppalguda Hyderabad,,,Puppalaguda,Hyderabad,17.40754251,78.36320873,,,Apartment,,,https://www.magicbricks.com/propertyDetails/2-BHK-1315-Sq-ft-Multistorey-Apartment-FOR-Sale-Puppalaguda-in-Hyderabad&id=4d423738343931373337
3 BHK Apartment for Sale in Gopanpalle Hyderabad,,,Gopanapalli,Hyderabad,17.456288,78.3090476,,,Apartment,,,https://www.magicbricks.com/propertyDetails/3-BHK-1570-Sq-ft-Multistorey-Apartment-FOR-Sale-Gopanapalli-in-Hyderabad&id=4d423739393835333137
3 BHK Apartment for Sale in Appa Junction Area Hyderabad,,,Appa junction,Hyderabad,17.35825185,78.37398447,,,Apartment,,,https://www.magicbricks.com/propertyDetails/3-BHK-1633-Sq-ft-Multistorey-Apartment-FOR-Sale-Appa-junction-in-Hyderabad&id=4d423735363231303333
2 BHK Apartment for Sale in Puppalguda Hyderabad,,,Puppalaguda,Hyderabad,17.342182159423828,78.36300659179688,,,Apartment,,,https://www.magicbricks.com/propertyDetails/2-BHK-1359-Sq-ft-Multistorey-Apartment-FOR-Sale-Puppalaguda-in-Hyderabad&id=4d423830323731393735
3 BHK Villa for Sale in Chitkul Hyderabad,,,,Hyderabad,17.560034,78.219482,,,SingleFamilyResidence,,,https://www.magicbricks.com/propertyDetails/3-BHK-2000-Sq-ft-Villa-FOR-Sale-Chitkul-in-Hyderabad&id=4d423734343639323133
"3 BHK Apartment for Sale in Alkapur Township, Manikonda, Outer Ring Road Hyderabad",,,Alkapur Township,Hyderabad,17.3861055,78.3702875,,,Apartment,,,https://www.magicbricks.com/propertyDetails/3-BHK-1900-Sq-ft-Multistorey-Apartment-FOR-Sale-Alkapur-Township-in-Hyderabad&id=4d423830343534313233
"3 BHK Apartment for Sale in Kokapet, Outer Ring Road Hyderabad",,,Kokapet,Hyderabad,17.3905539,78.3572039,,,Apartment,,,https://www.magicbricks.com/propertyDetails/3-BHK-1680-Sq-ft-Multistorey-Apartment-FOR-Sale-Kokapet-in-Hyderabad&id=4d423739393432393439
3 BHK Villa for Sale in Beeramguda Ramachandrapuram Hyderabad,,,Beeramguda,Hyderabad,17.54924025,78.28435283,,,SingleFamilyResidence,,,https://www.magicbricks.com/propertyDetails/3-BHK-1850-Sq-ft-Villa-FOR-Sale-Beeramguda-in-Hyderabad&id=4d423830313631313135
3 BHK Apartment for Sale in Vijayapuri Colony Tarnaka Hyderabad,,,Vijayapuri Colony Tarnaka,Hyderabad,17.02762222290039,77.786865234375,,,Apartment,,,https://www.magicbricks.com/propertyDetails/3-BHK-2000-Sq-ft-Multistorey-Apartment-FOR-Sale-Vijayapuri-Colony-Tarnaka-in-Hyderabad&id=4d423739393131383231
undefined,,,Gopanapalli,Hyderabad,17.436481682073516,78.31777711780552,,,Apartment,,,https://www.magicbricks.com/propertyDetails/2-BHK-1430-Sq-ft-Multistorey-Apartment-FOR-Sale-Gopanapalli-in-Hyderabad&id=4d423830343134343233
3 BHK Apartment for Sale in Bagh Amberpet Hyderabad,,,Bagh Amberpet,Hyderabad,17.027833938598633,77.78817749023438,,,Apartment,,,https://www.magicbricks.com/propertyDetails/3-BHK-1310-Sq-ft-Multistorey-Apartment-FOR-Sale-Bagh-Amberpet-in-Hyderabad&id=4d423739373830343831
"3 BHK Apartment for Sale in Tellapur, Outer Ring Road Hyderabad",,,Tellapur,Hyderabad,17.4606196,78.2751625,,,Apartment,,,https://www.magicbricks.com/propertyDetails/3-BHK-2210-Sq-ft-Multistorey-Apartment-FOR-Sale-Tellapur-in-Hyderabad&id=4d423738383434373137
2 BHK Apartment for Sale in Telecom Nagar Gachibowli Hyderabad,,,Telecom Nagar,Hyderabad,17.443563,78.3397746,,,Apartment,,,https://www.magicbricks.com/propertyDetails/2-BHK-1175-Sq-ft-Multistorey-Apartment-FOR-Sale-Telecom-Nagar-in-Hyderabad&id=4d423636373938353131
"3 BHK Apartment for Sale in Tellapur, Outer Ring Road Hyderabad",,,Tellapur,Hyderabad,17.45619823,78.28865722,,,Apartment,,,https://www.magicbricks.com/propertyDetails/3-BHK-1710-Sq-ft-Multistorey-Apartment-FOR-Sale-Tellapur-in-Hyderabad&id=4d423830323239383231
2 BHK Apartment for Sale in Gachibowli Hyderabad,,,Gachibowli,Hyderabad,17.443563,78.3397746,,,Apartment,,,https://www.magicbricks.com/propertyDetails/2-BHK-1283-Sq-ft-Multistorey-Apartment-FOR-Sale-Gachibowli-in-Hyderabad&id=4d423737333333323931
2 BHK Apartment for Sale in Puppalguda Hyderabad,,,Puppalaguda,Hyderabad,17.40747983354049,78.35934312365998,,,Apartment,,,https://www.magicbricks.com/propertyDetails/2-BHK-1326-Sq-ft-Multistorey-Apartment-FOR-Sale-Puppalaguda-in-Hyderabad&id=4d423830343237373039
3 BHK Apartment for Sale in Chitrapuri Colony Hyderabad,,,,Hyderabad,17.342191696166992,78.36304473876953,,,Apartment,,,https://www.magicbricks.com/propertyDetails/3-BHK-1670-Sq-ft-Multistorey-Apartment-FOR-Sale-Chitrapuri-Colony-in-Hyderabad&id=4d423539393934393039
3 BHK Apartment for Sale in Gajularamaram Hyderabad,,,Gajularamaram,Hyderabad,17.539549,78.40937,,,Apartment,,,https://www.magicbricks.com/propertyDetails/3-BHK-1981-Sq-ft-Multistorey-Apartment-FOR-Sale-Gajularamaram-in-Hyderabad&id=4d423739303238393637
2 BHK Apartment for Sale in Kondapur Hyderabad,,,Kondapur,Hyderabad,17.4626829,78.353178,,,Apartment,,,https://www.magicbricks.com/propertyDetails/2-BHK-1340-Sq-ft-Multistorey-Apartment-FOR-Sale-Kondapur-in-Hyderabad&id=4d423830353630303233
undefined,,,Yapral,Hyderabad,17.51501723,78.54012287,,,Apartment,,,https://www.magicbricks.com/propertyDetails/3-BHK-2185-Sq-ft-Multistorey-Apartment-FOR-Sale-Yapral-in-Hyderabad&id=4d423731363237343239
2 BHK Apartment for Sale in Kondapur Hyderabad,,,Kondapur,Hyderabad,17.4626829,78.353178,,,Apartment,,,https://www.magicbricks.com/propertyDetails/2-BHK-1340-Sq-ft-Multistorey-Apartment-FOR-Sale-Kondapur-in-Hyderabad&id=4d423830353630303233
3 BHK Apartment for Sale in Osman Nagar Hyderabad,,,Osman Nagar,Hyderabad,17.442140579223633,78.2763671875,,,Apartment,,,https://www.magicbricks.com/propertyDetails/3-BHK-1895-Sq-ft-Multistorey-Apartment-FOR-Sale-Osman-Nagar-in-Hyderabad&id=4d423739313339323035
3 BHK Apartment for Sale in Osman Nagar Hyderabad,,,Osman Nagar,Hyderabad,17.442140579223633,78.2763671875,,,Apartment,,,https://www.magicbricks.com/propertyDetails/3-BHK-1895-Sq-ft-Multistorey-Apartment-FOR-Sale-Osman-Nagar-in-Hyderabad&id=4d423739313339323035
3 BHK Apartment for Sale in Attapur Main Road Hyderabad,,,Attapur Main Road,Hyderabad,17.3679283037609,78.4317103301914,,,Apartment,,,https://www.magicbricks.com/propertyDetails/3-BHK-1640-Sq-ft-Multistorey-Apartment-FOR-Sale-Attapur-Main-Road-in-Hyderabad&id=4d423738383438303835
3 BHK Apartment for Sale in Old Nallakunta Hyderabad,,,Old Nallakunta,Hyderabad,17.4017806467438,78.5029324599984,,,Apartment,,,https://www.magicbricks.com/propertyDetails/3-BHK-1350-Sq-ft-Multistorey-Apartment-FOR-Sale-Old-Nallakunta-in-Hyderabad&id=4d423738303830383437
3 BHK Apartment for Sale in Kapra Saket Road Hyderabad,,,Kapra Saket Road,Hyderabad,17.488208770751953,78.56771087646484,,,Apartment,,,https://www.magicbricks.com/propertyDetails/3-BHK-1800-Sq-ft-Multistorey-Apartment-FOR-Sale-Kapra-Saket-Road-in-Hyderabad&id=4d423738313033323831
2 BHK Apartment for Sale in Gachibowli Hyderabad,,,Gachibowli,Hyderabad,17.4661387919325,78.3574087383959,,,Apartment,,,https://www.magicbricks.com/propertyDetails/2-BHK-1296-Sq-ft-Multistorey-Apartment-FOR-Sale-Gachibowli-in-Hyderabad&id=4d423735353234393637
3 BHK Apartment for Sale in Nacharam Hyderabad,,,Nacharam,Hyderabad,17.43342399597168,78.56175231933594,,,Apartment,,,https://www.magicbricks.com/propertyDetails/3-BHK-1450-Sq-ft-Multistorey-Apartment-FOR-Sale-Nacharam-in-Hyderabad&id=4d423738343234333339
"3 BHK Apartment for Sale in Jyothi Rao Pule Colony, Serilingampally Hyderabad",,,Jyothi Rao Pule Colony,Hyderabad,17.4606196,78.2751625,,,Apartment,,,https://www.magicbricks.com/propertyDetails/3-BHK-1581-Sq-ft-Multistorey-Apartment-FOR-Sale-Jyothi-Rao-Pule-Colony-in-Hyderabad&id=4d423738333132333039
"3 BHK Apartment for Sale in Jyothi Rao Pule Colony, Serilingampally Hyderabad",,,Jyothi Rao Pule Colony,Hyderabad,17.4606196,78.2751625,,,Apartment,,,https://www.magicbricks.com/propertyDetails/3-BHK-1581-Sq-ft-Multistorey-Apartment-FOR-Sale-Jyothi-Rao-Pule-Colony-in-Hyderabad&id=4d423738333132333039
"3 BHK Apartment for Sale in Kollur, Outer Ring Road Hyderabad",,,Kollur,Hyderabad,17.4471591,78.25411575,,,Apartment,,,https://www.magicbricks.com/propertyDetails/3-BHK-2040-Sq-ft-Multistorey-Apartment-FOR-Sale-Kollur-in-Hyderabad&id=4d423830333635323831
undefined,,,Yapral,Hyderabad,17.51501723,78.54012287,,,Apartment,,,https://www.magicbricks.com/propertyDetails/3-BHK-2185-Sq-ft-Multistorey-Apartment-FOR-Sale-Yapral-in-Hyderabad&id=4d423731363237343239
2 BHK Apartment for Sale in Adobe Aravindam Hyderabad,,,,Hyderabad,,,,,Apartment,,,https://www.magicbricks.com/propertyDetails/2-BHK-1350-Sq-ft-Multistorey-Apartment-FOR-Sale-in-Hyderabad&id=4d423830323333373233
3 BHK Apartment for Sale in Puppalguda Hyderabad,,,Puppalaguda,Hyderabad,17.3971920769945,78.3796118209843,,,Apartment,,,https://www.magicbricks.com/propertyDetails/3-BHK-1715-Sq-ft-Multistorey-Apartment-FOR-Sale-Puppalaguda-in-Hyderabad&id=4d423830363138313039
"2 BHK Apartment for Sale in Alkapur Township, Manikonda, Outer Ring Road Hyderabad",,,Alkapur Township,Hyderabad,17.3861055,78.3702875,,,Apartment,,,https://www.magicbricks.com/propertyDetails/2-BHK-1370-Sq-ft-Multistorey-Apartment-FOR-Sale-Alkapur-Township-in-Hyderabad&id=4d423739333635353131
3 BHK Apartment for Sale in Puppalguda Hyderabad,,,Puppalaguda,Hyderabad,17.39985125,78.36982698,,,Apartment,,,https://www.magicbricks.com/propertyDetails/3-BHK-1360-Sq-ft-Multistorey-Apartment-FOR-Sale-Puppalaguda-in-Hyderabad&id=4d423830343532373835
3 BHK Apartment for Sale in Ameenpur Hyderabad,,,,Hyderabad,17.5265125876332,78.3316496153237,,,Apartment,,,https://www.magicbricks.com/propertyDetails/3-BHK-1509-Sq-ft-Multistorey-Apartment-FOR-Sale-Ameenpur-in-Hyderabad&id=4d423830353639323935
"3 BHK Apartment for Sale in Kollur, Outer Ring Road Hyderabad",,,Kollur,Hyderabad,17.46337342,78.25373742,,,Apartment,,,https://www.magicbricks.com/propertyDetails/3-BHK-2300-Sq-ft-Multistorey-Apartment-FOR-Sale-Kollur-in-Hyderabad&id=4d423830323937343737
"3 BHK Apartment for Sale in Kollur, Outer Ring Road Hyderabad",,,Kollur,Hyderabad,17.46337342,78.25373742,,,Apartment,,,https://www.magicbricks.com/propertyDetails/3-BHK-2300-Sq-ft-Multistorey-Apartment-FOR-Sale-Kollur-in-Hyderabad&id=4d423830323937343737
"3 BHK Apartment for Sale in Kukatpally, NH 9 Hyderabad",,,Kukatpally,Hyderabad,17.4931599197008,78.4022774070356,,,Apartment,,,https://www.magicbricks.com/propertyDetails/3-BHK-1800-Sq-ft-Multistorey-Apartment-FOR-Sale-Kukatpally-in-Hyderabad&id=4d423830343836323937
2 BHK Apartment for Sale in Puppalguda Hyderabad,,,Puppalaguda,Hyderabad,17.40747983354049,78.35934312365998,,,Apartment,,,https://www.magicbricks.com/propertyDetails/2-BHK-1514-Sq-ft-Multistorey-Apartment-FOR-Sale-Puppalaguda-in-Hyderabad&id=4d423739303437393537
3 BHK Apartment for Sale in Chanda Nagar Hyderabad,,,,Hyderabad,17.495741,78.325436,,,Apartment,,,https://www.magicbricks.com/propertyDetails/3-BHK-1708-Sq-ft-Multistorey-Apartment-FOR-Sale-Chanda-Nagar-in-Hyderabad&id=4d423830343538383133
2 BHK Apartment for Sale in Gachibowli Hyderabad,,,Gachibowli,Hyderabad,17.443563,78.3397746,,,Apartment,,,https://www.magicbricks.com/propertyDetails/2-BHK-1275-Sq-ft-Multistorey-Apartment-FOR-Sale-Gachibowli-in-Hyderabad&id=4d423737383937363237
2 BHK Apartment for Sale in Gachibowli Hyderabad,,,Gachibowli,Hyderabad,17.443563,78.3397746,,,Apartment,,,https://www.magicbricks.com/propertyDetails/2-BHK-1275-Sq-ft-Multistorey-Apartment-FOR-Sale-Gachibowli-in-Hyderabad&id=4d423737383937363237
4 BHK  House for Sale in Nagaram Hyderabad,,,Nagaram,Hyderabad,17.4838610299951,78.6084083107014,,,SingleFamilyResidence,,,https://www.magicbricks.com/propertyDetails/4-BHK-200-Sq-yrd-Residential-House-FOR-Sale-Nagaram-in-Hyderabad&id=4d423737363039303539
"2 BHK Apartment for Sale in Narsingi, Outer Ring Road Hyderabad",,,Narsingi,Hyderabad,17.39538849415279,78.35505192619372,,,Apartment,,,https://www.magicbricks.com/propertyDetails/2-BHK-1370-Sq-ft-Multistorey-Apartment-FOR-Sale-Narsingi-in-Hyderabad&id=4d423738353331323535
"2 BHK Apartment for Sale in Narsingi, Outer Ring Road Hyderabad",,,Narsingi,Hyderabad,17.39538849415279,78.35505192619372,,,Apartment,,,https://www.magicbricks.com/propertyDetails/2-BHK-1370-Sq-ft-Multistorey-Apartment-FOR-Sale-Narsingi-in-Hyderabad&id=4d423738353331323535
"2 BHK Apartment for Sale in Kollur, Outer Ring Road Hyderabad",,,Kollur,Hyderabad,17.4471591,78.25411575,,,Apartment,,,https://www.magicbricks.com/propertyDetails/2-BHK-1260-Sq-ft-Multistorey-Apartment-FOR-Sale-Kollur-in-Hyderabad&id=4d423739393235353931
3 BHK Apartment for Sale in Chanda Nagar Hyderabad,,,,Hyderabad,17.495741,78.325436,,,Apartment,,,https://www.magicbricks.com/propertyDetails/3-BHK-1550-Sq-ft-Multistorey-Apartment-FOR-Sale-Chanda-Nagar-in-Hyderabad&id=4d423739393239373737
2 BHK Apartment for Sale in Sangeet Nagar Kukatpally Hyderabad,,,Sangeet Nagar Kukatpally,Hyderabad,17.473027,78.4122745,,,Apartment,,,https://www.magicbricks.com/propertyDetails/2-BHK-1095-Sq-ft-Multistorey-Apartment-FOR-Sale-Sangeet-Nagar-Kukatpally-in-Hyderabad&id=4d423738383239373333
2 BHK Apartment for Sale in Sangeet Nagar Kukatpally Hyderabad,,,Sangeet Nagar Kukatpally,Hyderabad,17.473027,78.4122745,,,Apartment,,,https://www.magicbricks.com/propertyDetails/2-BHK-1095-Sq-ft-Multistorey-Apartment-FOR-Sale-Sangeet-Nagar-Kukatpally-in-Hyderabad&id=4d423738383239373333
2 BHK Apartment for Sale in Khajaguda Nanakramguda Road Hyderabad,,,Khajaguda Nanakramguda Road,Hyderabad,17.443563,78.3397746,,,Apartment,,,https://www.magicbricks.com/propertyDetails/2-BHK-944-Sq-ft-Multistorey-Apartment-FOR-Sale-Khajaguda-Nanakramguda-Road-in-Hyderabad&id=4d423739333439303835
undefined,,,Nallagandla,Hyderabad,17.4633553,78.306611,,,Apartment,,,https://www.magicbricks.com/propertyDetails/3-BHK-1650-Sq-ft-Multistorey-Apartment-FOR-Sale-Nallagandla-in-Hyderabad&id=4d423830323637363535
3 BHK Apartment for Sale in Bachupally Hyderabad,,,Bachupally,Hyderabad,17.551816,78.3860695,,,Apartment,,,https://www.magicbricks.com/propertyDetails/3-BHK-1617-Sq-ft-Multistorey-Apartment-FOR-Sale-Bachupally-in-Hyderabad&id=4d423738343138313533
3 BHK Apartment for Sale in Bachupally Hyderabad,,,Bachupally,Hyderabad,17.551816,78.3860695,,,Apartment,,,https://www.magicbricks.com/propertyDetails/3-BHK-1524-Sq-ft-Multistorey-Apartment-FOR-Sale-Bachupally-in-Hyderabad&id=4d423830313938383137
3 BHK Apartment for Sale in Serilingampalle M Hyderabad,,,Serilingampally,Hyderabad,17.4743879,78.319997,,,Apartment,,,https://www.magicbricks.com/propertyDetails/3-BHK-1601-Sq-ft-Multistorey-Apartment-FOR-Sale-Serilingampally-in-Hyderabad&id=4d423737373838363435
"2 BHK Apartment for Sale in Tellapur, Outer Ring Road Hyderabad",,,Tellapur,Hyderabad,17.4606196,78.2751625,,,Apartment,,,https://www.magicbricks.com/propertyDetails/2-BHK-1253-Sq-ft-Multistorey-Apartment-FOR-Sale-Tellapur-in-Hyderabad&id=4d423739383933383031
3 BHK Apartment for Sale in Mansoorabad Road Hyderabad,,,Mansoorabad Road,Hyderabad,17.3427166,78.5710249,,,Apartment,,,https://www.magicbricks.com/propertyDetails/3-BHK-1605-Sq-ft-Multistorey-Apartment-FOR-Sale-Mansoorabad-Road-in-Hyderabad&id=4d423739383032363035
3 BHK Apartment for Sale in Kondapur Hyderabad,,,Kondapur,Hyderabad,17.4641871,78.3664943,,,Apartment,,,https://www.magicbricks.com/propertyDetails/3-BHK-1650-Sq-ft-Multistorey-Apartment-FOR-Sale-Kondapur-in-Hyderabad&id=4d423830363636333035
"2 BHK Apartment for Sale in Miyapur, NH 9 Hyderabad",,,Miyapur,Hyderabad,17.5210925,78.3442965,,,Apartment,,,https://www.magicbricks.com/propertyDetails/2-BHK-1209-Sq-ft-Multistorey-Apartment-FOR-Sale-Miyapur-in-Hyderabad&id=4d423738383430383737
2 BHK Apartment for Sale in Gandipet Hyderabad,,,Gandipet,Hyderabad,17.3836594,78.3219475,,,Apartment,,,https://www.magicbricks.com/propertyDetails/2-BHK-1410-Sq-ft-Multistorey-Apartment-FOR-Sale-Gandipet-in-Hyderabad&id=4d423830323233313335
"3 BHK Apartment for Sale in Buddha Nagar Colony, Boduppal Hyderabad",,,Buddha Nagar Colony,Hyderabad,17.407703399658203,78.59165954589844,,,Apartment,,,https://www.magicbricks.com/propertyDetails/3-BHK-2100-Sq-ft-Multistorey-Apartment-FOR-Sale-Buddha-Nagar-Colony-in-Hyderabad&id=4d423830323631373433
"3 BHK Apartment for Sale in Buddha Nagar Colony, Boduppal Hyderabad",,,Buddha Nagar Colony,Hyderabad,17.407703399658203,78.59165954589844,,,Apartment,,,https://www.magicbricks.com/propertyDetails/3-BHK-2100-Sq-ft-Multistorey-Apartment-FOR-Sale-Buddha-Nagar-Colony-in-Hyderabad&id=4d423830323631373433
undefined,,,Bachupally,Hyderabad,17.54625083,78.40211964,,,Apartment,,,https://www.magicbricks.com/propertyDetails/3-BHK-2035-Sq-ft-Multistorey-Apartment-FOR-Sale-Bachupally-in-Hyderabad&id=4d423830313937303033
3 BHK Apartment for Sale in Ameenpur Hyderabad,,,,Hyderabad,17.5265125876332,78.3316496153237,,,Apartment,,,https://www.magicbricks.com/propertyDetails/3-BHK-1509-Sq-ft-Multistorey-Apartment-FOR-Sale-Ameenpur-in-Hyderabad&id=4d423737393136343539
"2 BHK Apartment for Sale in Kokapet, Outer Ring Road Hyderabad",,,Kokapet,Hyderabad,17.3969314,78.335221,,,Apartment,,,https://www.magicbricks.com/propertyDetails/2-BHK-1380-Sq-ft-Multistorey-Apartment-FOR-Sale-Kokapet-in-Hyderabad&id=4d423830353137323439
undefined,,,Gopanapalli,Hyderabad,17.43958561810291,78.29107136932797,,,Apartment,,,https://www.magicbricks.com/propertyDetails/2-BHK-1496-Sq-ft-Multistorey-Apartment-FOR-Sale-Gopanapalli-in-Hyderabad&id=4d423736313933353831
undefined,,,Patighanpur,Hyderabad,17.5071923,78.2472294,,,Apartment,,,https://www.magicbricks.com/propertyDetails/3-BHK-1916-Sq-ft-Multistorey-Apartment-FOR-Sale-Patighanpur-in-Hyderabad&id=4d423738303931373735
undefined,,,Manikonda,Hyderabad,17.3971920769945,78.3796118209843,,,Apartment,,,https://www.magicbricks.com/propertyDetails/2-BHK-1445-Sq-ft-Multistorey-Apartment-FOR-Sale-Manikonda-in-Hyderabad&id=4d423736323334373833
undefined,,,Kismatpur,Hyderabad,17.34898901609838,78.38786002945167,,,Apartment,,,https://www.magicbricks.com/propertyDetails/3-BHK-1703-Sq-ft-Multistorey-Apartment-FOR-Sale-Kismatpur-in-Hyderabad&id=4d423739303630353731
3 BHK Apartment for Sale in Budwel Hyderabad,,,,Hyderabad,17.32601518,78.40801562,,,Apartment,,,https://www.magicbricks.com/propertyDetails/3-BHK-1596-Sq-ft-Multistorey-Apartment-FOR-Sale-Budwel-in-Hyderabad&id=4d423830363139313731
"2 BHK Apartment for Sale in Kokapet, Outer Ring Road Hyderabad",,,Kokapet,Hyderabad,17.3969314,78.335221,,,Apartment,,,https://www.magicbricks.com/propertyDetails/2-BHK-1295-Sq-ft-Multistorey-Apartment-FOR-Sale-Kokapet-in-Hyderabad&id=4d423739323130383239
3 BHK Apartment for Sale in Manikonda Jagir Hyderabad,,,Manikonda,Hyderabad,17.4125038126094,78.3687404301165,,,Apartment,,,https://www.magicbricks.com/propertyDetails/3-BHK-1950-Sq-ft-Multistorey-Apartment-FOR-Sale-Manikonda-in-Hyderabad&id=4d423830363035303639
3 BHK Apartment for Sale in Nizampet Hyderabad,,,Nizampet,Hyderabad,17.5185832117791,78.3809840599711,,,Apartment,,,https://www.magicbricks.com/propertyDetails/3-BHK-1835-Sq-ft-Multistorey-Apartment-FOR-Sale-Nizampet-in-Hyderabad&id=4d423739313631373339
"2 BHK Apartment for Sale in Kokapet, Outer Ring Road Hyderabad",,,Kokapet,Hyderabad,17.39538849415279,78.35505192619372,,,Apartment,,,https://www.magicbricks.com/propertyDetails/2-BHK-1370-Sq-ft-Multistorey-Apartment-FOR-Sale-Kokapet-in-Hyderabad&id=4d423739343331363037
3 BHK Apartment for Sale in Ameenpur Plots Hyderabad,,,Ameenpur Plots,Hyderabad,17.5265125876332,78.3316496153237,,,Apartment,,,https://www.magicbricks.com/propertyDetails/3-BHK-1839-Sq-ft-Multistorey-Apartment-FOR-Sale-Ameenpur-Plots-in-Hyderabad&id=4d423830323937343137
3 BHK Apartment for Sale in Madeenaguda Hyderabad,,,Madinaguda,Hyderabad,17.4924001,78.3417291,,,Apartment,,,https://www.magicbricks.com/propertyDetails/3-BHK-1760-Sq-ft-Multistorey-Apartment-FOR-Sale-Madinaguda-in-Hyderabad&id=4d423830343430363237
3 BHK Apartment for Sale in Mokila Hyderabad,,,Mokila,Hyderabad,17.42985695,78.19739484,,,Apartment,,,https://www.magicbricks.com/propertyDetails/3-BHK-2633-Sq-ft-Multistorey-Apartment-FOR-Sale-Mokila-in-Hyderabad&id=4d423830323639353437
3 BHK Apartment for Sale in Osman Nagar Hyderabad,,,Osman Nagar,Hyderabad,17.4344695,78.2425939,,,Apartment,,,https://www.magicbricks.com/propertyDetails/3-BHK-2030-Sq-ft-Multistorey-Apartment-FOR-Sale-Osman-Nagar-in-Hyderabad&id=4d423830353731313735
"3 BHK Apartment for Sale in Kollur, Outer Ring Road Hyderabad",,,Kollur,Hyderabad,17.4471591,78.25411575,,,Apartment,,,https://www.magicbricks.com/propertyDetails/3-BHK-1720-Sq-ft-Multistorey-Apartment-FOR-Sale-Kollur-in-Hyderabad&id=4d423830343234393237
3 BHK Apartment for Sale in Ameenpur Hyderabad,,,,Hyderabad,17.5265125876332,78.3316496153237,,,Apartment,,,https://www.magicbricks.com/propertyDetails/3-BHK-1509-Sq-ft-Multistorey-Apartment-FOR-Sale-Ameenpur-in-Hyderabad&id=4d423830343530353237
3 BHK Apartment for Sale in Budwel Hyderabad,,,,Hyderabad,17.32601518,78.40801562,,,Apartment,,,https://www.magicbricks.com/propertyDetails/3-BHK-1596-Sq-ft-Multistorey-Apartment-FOR-Sale-Budwel-in-Hyderabad&id=4d423830333732383939
3 BHK Apartment for Sale in Ameenpur Hyderabad,,,,Hyderabad,17.5265125876332,78.3316496153237,,,Apartment,,,https://www.magicbricks.com/propertyDetails/3-BHK-1509-Sq-ft-Multistorey-Apartment-FOR-Sale-Ameenpur-in-Hyderabad&id=4d423830343530353237
"3 BHK Apartment for Sale in Tellapur, Outer Ring Road Hyderabad",,,Tellapur,Hyderabad,17.4606196,78.2751625,,,Apartment,,,https://www.magicbricks.com/propertyDetails/3-BHK-2485-Sq-ft-Multistorey-Apartment-FOR-Sale-Tellapur-in-Hyderabad&id=4d423737393932323239
"3 BHK Apartment for Sale in Anupama Homes, Manikonda Hyderabad",,,Anupama Homes,Hyderabad,17.4027485,78.3673646,,,Apartment,,,https://www.magicbricks.com/propertyDetails/3-BHK-1825-Sq-ft-Multistorey-Apartment-FOR-Sale-Anupama-Homes-in-Hyderabad&id=4d423737303332343033
3 BHK Apartment for Sale in HUDA Layout Nalagandla Hyderabad,,,HUDA Layout,Hyderabad,17.4633553,78.306611,,,Apartment,,,https://www.magicbricks.com/propertyDetails/3-BHK-1640-Sq-ft-Multistorey-Apartment-FOR-Sale-HUDA-Layout-in-Hyderabad&id=4d423830343636323737
"2 BHK Apartment for Sale in Kukatpally Housing Board Colony, NH 9 Hyderabad",,,Kukatpally Housing Board Colony,Hyderabad,17.474649198091186,78.39242428741092,,,Apartment,,,https://www.magicbricks.com/propertyDetails/2-BHK-1278-Sq-ft-Multistorey-Apartment-FOR-Sale-Kukatpally-Housing-Board-Colony-in-Hyderabad&id=4d423830333831363231
"3 BHK Apartment for Sale in Kollur, Outer Ring Road Hyderabad",,,Kollur,Hyderabad,17.473458695001277,78.24676260184742,,,Apartment,,,https://www.magicbricks.com/propertyDetails/3-BHK-1650-Sq-ft-Multistorey-Apartment-FOR-Sale-Kollur-in-Hyderabad&id=4d423733383432333131
3 BHK Apartment for Sale in Adarsh Nagar Serilingampalle M Hyderabad,,,Adarsh Nagar Serilingampalle,Hyderabad,17.4743879,78.319997,,,Apartment,,,https://www.magicbricks.com/propertyDetails/3-BHK-1652-Sq-ft-Multistorey-Apartment-FOR-Sale-Adarsh-Nagar-Serilingampally-in-Hyderabad&id=4d423738303438303737
"3 BHK Apartment for Sale in Golden Heights Colony, Janachaitanya colony, Hyderabad Expressway Hyderabad",,,Golden Heights Colony,Hyderabad,17.3539184339131,78.4131337590307,,,Apartment,,,https://www.magicbricks.com/propertyDetails/3-BHK-1531-Sq-ft-Multistorey-Apartment-FOR-Sale-Golden-Heights-Colony-in-Hyderabad&id=4d423737393631313337
2 BHK Apartment for Sale in Kompally Hyderabad,,,Kompally,Hyderabad,17.538052,78.4839479,,,Apartment,,,https://www.magicbricks.com/propertyDetails/2-BHK-960-Sq-ft-Multistorey-Apartment-FOR-Sale-Kompally-in-Hyderabad&id=4d423738383834353831
"3 BHK Apartment for Sale in Jaibery Colony, Komapally Hyderabad",,,Jaibery Colony,Hyderabad,17.562839443468974,78.48732244371283,,,Apartment,,,https://www.magicbricks.com/propertyDetails/3-BHK-1905-Sq-ft-Multistorey-Apartment-FOR-Sale-Jaibery-Colony-in-Hyderabad&id=4d423738383138333333
3 BHK Apartment for Sale in Sahebnagar Kalan Hyderabad,,,Saheb Nagar,Hyderabad,17.340297,78.627954,,,Apartment,,,https://www.magicbricks.com/propertyDetails/3-BHK-2364-Sq-ft-Multistorey-Apartment-FOR-Sale-Saheb-Nagar-in-Hyderabad&id=4d423830353735383531
3 BHK Apartment for Sale in Bharath Nagar Colony Attapur Hyderabad,,,Bharath Nagar Colony Attapur,Hyderabad,17.3679283037609,78.4317103301914,,,Apartment,,,https://www.magicbricks.com/propertyDetails/3-BHK-1600-Sq-ft-Multistorey-Apartment-FOR-Sale-Bharath-Nagar-Colony-Attapur-in-Hyderabad&id=4d423738353431363633
2 BHK Apartment for Sale in Gundlapochampalli Hyderabad,,,Gundlapochampalli,Hyderabad,17.57292317,78.47341368,,,Apartment,,,https://www.magicbricks.com/propertyDetails/2-BHK-1320-Sq-ft-Multistorey-Apartment-FOR-Sale-Gundlapochampalli-in-Hyderabad&id=4d423738353432363931
3 BHK Apartment for Sale in Chanda Nagar Hyderabad,,,,Hyderabad,17.495741,78.325436,,,Apartment,,,https://www.magicbricks.com/propertyDetails/3-BHK-1300-Sq-ft-Multistorey-Apartment-FOR-Sale-Chanda-Nagar-in-Hyderabad&id=4d423738353339373837
"3 BHK Apartment for Sale in Jaibery Colony, Komapally Hyderabad",,,Jaibery Colony,Hyderabad,17.5425945515091,78.4822910638784,,,Apartment,,,https://www.magicbricks.com/propertyDetails/3-BHK-1600-Sq-ft-Multistorey-Apartment-FOR-Sale-Jaibery-Colony-in-Hyderabad&id=4d423738353337393639
3 BHK Apartment for Sale in Defence Colony Serilingampalle Hyderabad,,,Defence Colony Serilingampalle,Hyderabad,17.4743879,78.319997,,,Apartment,,,https://www.magicbricks.com/propertyDetails/3-BHK-1456-Sq-ft-Multistorey-Apartment-FOR-Sale-Defence-Colony-Serilingampalle-in-Hyderabad&id=4d423738343133323031
2 BHK Apartment for Sale in Kondapur Hyderabad,,,Kondapur,Hyderabad,17.4661387919325,78.3574087383959,,,Apartment,,,https://www.magicbricks.com/propertyDetails/2-BHK-1400-Sq-ft-Multistorey-Apartment-FOR-Sale-Kondapur-in-Hyderabad&id=4d423738343130333531
3 BHK Apartment for Sale in Lakshmiguda Hyderabad,,,,Hyderabad,17.2997163716381,78.4388471208285,,,Apartment,,,https://www.magicbricks.com/propertyDetails/3-BHK-1856-Sq-ft-Multistorey-Apartment-FOR-Sale-Lakshmiguda-in-Hyderabad&id=4d423738333933343435
3 BHK Apartment for Sale in Nizampet Hyderabad,,,Nizampet,Hyderabad,17.52340004,78.37516538,,,Apartment,,,https://www.magicbricks.com/propertyDetails/3-BHK-2014-Sq-ft-Multistorey-Apartment-FOR-Sale-Nizampet-in-Hyderabad&id=4d423738373836343633
3 BHK Apartment for Sale in Kompally Hyderabad,,,Kompally,Hyderabad,17.6206150860088,78.4085952054499,,,Apartment,,,https://www.magicbricks.com/propertyDetails/3-BHK-2076-Sq-ft-Multistorey-Apartment-FOR-Sale-Kompally-in-Hyderabad&id=4d423738383932363731
"2 BHK Apartment for Sale in Alkapur Township, Manikonda, Outer Ring Road Hyderabad",,,Alkapur Township,Hyderabad,17.3861055,78.3702875,,,Apartment,,,https://www.magicbricks.com/propertyDetails/2-BHK-1296-Sq-ft-Multistorey-Apartment-FOR-Sale-Alkapur-Township-in-Hyderabad&id=4d423738363732313035
3 BHK Apartment for Sale in Budwel Hyderabad,,,,Hyderabad,17.32601518,78.40801562,,,Apartment,,,https://www.magicbricks.com/propertyDetails/3-BHK-1596-Sq-ft-Multistorey-Apartment-FOR-Sale-Budwel-in-Hyderabad&id=4d423830323532383935
3 BHK Apartment for Sale in Manikonda Jagir Hyderabad,,,Manikonda,Hyderabad,17.4125038126094,78.3687404301165,,,Apartment,,,https://www.magicbricks.com/propertyDetails/3-BHK-2386-Sq-ft-Multistorey-Apartment-FOR-Sale-Manikonda-in-Hyderabad&id=4d423739313233343337
"3 BHK Apartment for Sale in Kollur, Outer Ring Road Hyderabad",,,Kollur,Hyderabad,17.4606196,78.2751625,,,Apartment,,,https://www.magicbricks.com/propertyDetails/3-BHK-1880-Sq-ft-Multistorey-Apartment-FOR-Sale-Kollur-in-Hyderabad&id=4d423830343936363831
3 BHK Apartment for Sale in Bachupally Hyderabad,,,Bachupally,Hyderabad,17.551816,78.3860695,,,Apartment,,,https://www.magicbricks.com/propertyDetails/3-BHK-1914-Sq-ft-Multistorey-Apartment-FOR-Sale-Bachupally-in-Hyderabad&id=4d423830333939353235
"3 BHK Apartment for Sale in Tellapur, Outer Ring Road Hyderabad",,,Tellapur,Hyderabad,17.438560240265222,78.28732316476481,,,Apartment,,,https://www.magicbricks.com/propertyDetails/3-BHK-1725-Sq-ft-Multistorey-Apartment-FOR-Sale-Tellapur-in-Hyderabad&id=4d423732353232333537
3 BHK Apartment for Sale in Khajaguda Hyderabad,,,Khajaguda,Hyderabad,17.418054918611,78.3624606137699,,,Apartment,,,https://www.magicbricks.com/propertyDetails/3-BHK-1450-Sq-ft-Multistorey-Apartment-FOR-Sale-Khajaguda-in-Hyderabad&id=4d423738333830323331
"3 BHK Apartment for Sale in Kollur, Outer Ring Road Hyderabad",,,Kollur,Hyderabad,17.4344695,78.2425939,,,Apartment,,,https://www.magicbricks.com/propertyDetails/3-BHK-1846-Sq-ft-Multistorey-Apartment-FOR-Sale-Kollur-in-Hyderabad&id=4d423830323737303335
3 BHK Apartment for Sale in Osman Nagar Hyderabad,,,Osman Nagar,Hyderabad,17.4417842468164,78.2803618440924,,,Apartment,,,https://www.magicbricks.com/propertyDetails/3-BHK-1930-Sq-ft-Multistorey-Apartment-FOR-Sale-Osman-Nagar-in-Hyderabad&id=4d423739363531323835
3 BHK Apartment for Sale in Nalagandla Hyderabad,,,Nallagandla,Hyderabad,17.46235977,78.3035209,,,Apartment,,,https://www.magicbricks.com/propertyDetails/3-BHK-1580-Sq-ft-Multistorey-Apartment-FOR-Sale-Nallagandla-in-Hyderabad&id=4d423830343036313935
"3 BHK Apartment for Sale in Tukkuguda, Srisailam Highway Hyderabad",,,Tukkuguda,Hyderabad,17.2104421,78.4766614,,,Apartment,,,https://www.magicbricks.com/propertyDetails/3-BHK-2160-Sq-ft-Multistorey-Apartment-FOR-Sale-Tukkuguda-in-Hyderabad&id=4d423738343138343533
"3 BHK Apartment for Sale in Gandi Maisamma, Outer Ring Road Hyderabad",,,Gandi Maisamma,Hyderabad,17.58863,78.44283,,,Apartment,,,https://www.magicbricks.com/propertyDetails/3-BHK-1750-Sq-ft-Multistorey-Apartment-FOR-Sale-Gandi-Maisamma-in-Hyderabad&id=4d423736383231333139
3 BHK Apartment for Sale in Patancheruvu Hyderabad,,,Patancheru,Hyderabad,17.513125,78.259694,,,Apartment,,,https://www.magicbricks.com/propertyDetails/3-BHK-1585-Sq-ft-Multistorey-Apartment-FOR-Sale-Patancheru-in-Hyderabad&id=4d423830353538383131
3 BHK Villa for Sale in Ankushapur Hyderabad,,,Ankushapur,Hyderabad,17.4475916,78.7275552,,,SingleFamilyResidence,,,https://www.magicbricks.com/propertyDetails/3-BHK-1680-Sq-ft-Villa-FOR-Sale-Ankushapur-in-Hyderabad&id=4d423830363734323333
3 BHK Apartment for Sale in Ameenpur Plots Hyderabad,,,Ameenpur Plots,Hyderabad,17.5265125876332,78.3316496153237,,,Apartment,,,https://www.magicbricks.com/propertyDetails/3-BHK-1509-Sq-ft-Multistorey-Apartment-FOR-Sale-Ameenpur-Plots-in-Hyderabad&id=4d423739363236353933
"3 BHK Apartment for Sale in Kollur, Outer Ring Road Hyderabad",,,Kollur,Hyderabad,17.48724781,78.24465367,,,Apartment,,,https://www.magicbricks.com/propertyDetails/3-BHK-2300-Sq-ft-Multistorey-Apartment-FOR-Sale-Kollur-in-Hyderabad&id=4d423736323230353037
2 BHK Apartment for Sale in Nalagandla Hyderabad,,,Nallagandla,Hyderabad,17.46512002,78.31325196,,,Apartment,,,https://www.magicbricks.com/propertyDetails/2-BHK-1240-Sq-ft-Multistorey-Apartment-FOR-Sale-Nallagandla-in-Hyderabad&id=4d423739393439393137
2 BHK Apartment for Sale in RB Nagar Hyderabad,,,RB Nagar,Hyderabad,17.2864933013916,78.41468811035156,,,Apartment,,,https://www.magicbricks.com/propertyDetails/2-BHK-1440-Sq-ft-Multistorey-Apartment-FOR-Sale-R-B-Nagar-in-Hyderabad&id=4d423732353836383633
"3 BHK Apartment for Sale in Miyapur, NH 9 Hyderabad",,,Miyapur,Hyderabad,17.5210925,78.3442965,,,Apartment,,,https://www.magicbricks.com/propertyDetails/3-BHK-1333-Sq-ft-Multistorey-Apartment-FOR-Sale-Miyapur-in-Hyderabad&id=4d423634353331383539
3 BHK Apartment for Sale in Kondapur Hyderabad,,,Kondapur,Hyderabad,17.4661387919325,78.3574087383959,,,Apartment,,,https://www.magicbricks.com/propertyDetails/3-BHK-1166-Sq-ft-Multistorey-Apartment-FOR-Sale-Kondapur-in-Hyderabad&id=4d423638353632393633
"3 BHK Apartment for Sale in Miyapur, NH 9 Hyderabad",,,Miyapur,Hyderabad,17.5210925,78.3442965,,,Apartment,,,https://www.magicbricks.com/propertyDetails/3-BHK-1710-Sq-ft-Multistorey-Apartment-FOR-Sale-Miyapur-in-Hyderabad&id=4d423830303438353631
3 BHK Apartment for Sale in Serilingampalle M Hyderabad,,,Serilingampally,Hyderabad,17.4743879,78.319997,,,Apartment,,,https://www.magicbricks.com/propertyDetails/3-BHK-1652-Sq-ft-Multistorey-Apartment-FOR-Sale-Serilingampally-in-Hyderabad&id=4d423738383436333235
"3 BHK Apartment for Sale in Kollur, Outer Ring Road Hyderabad",,,Kollur,Hyderabad,17.4344695,78.2425939,,,Apartment,,,https://www.magicbricks.com/propertyDetails/3-BHK-1805-Sq-ft-Multistorey-Apartment-FOR-Sale-Kollur-in-Hyderabad&id=4d423830343835333335
3 BHK Apartment for Sale in Ameenpur Hyderabad,,,,Hyderabad,17.5265125876332,78.3316496153237,,,Apartment,,,https://www.magicbricks.com/propertyDetails/3-BHK-1839-Sq-ft-Multistorey-Apartment-FOR-Sale-Ameenpur-in-Hyderabad&id=4d423830333738373133
3 BHK Apartment for Sale in Osman Nagar Hyderabad,,,Osman Nagar,Hyderabad,17.4417842468164,78.2803618440924,,,Apartment,,,https://www.magicbricks.com/propertyDetails/3-BHK-1760-Sq-ft-Multistorey-Apartment-FOR-Sale-Osman-Nagar-in-Hyderabad&id=4d423830313538373237
2 BHK Apartment for Sale in Osman Nagar Hyderabad,,,Osman Nagar,Hyderabad,17.4417842468164,78.2803618440924,,,Apartment,,,https://www.magicbricks.com/propertyDetails/2-BHK-1357-Sq-ft-Multistorey-Apartment-FOR-Sale-Osman-Nagar-in-Hyderabad&id=4d423739393233323639
2 BHK Apartment for Sale in Kondapur Hyderabad,,,Kondapur,Hyderabad,17.4661387919325,78.3574087383959,,,Apartment,,,https://www.magicbricks.com/propertyDetails/2-BHK-1296-Sq-ft-Multistorey-Apartment-FOR-Sale-Kondapur-in-Hyderabad&id=4d423830343830343035
3 BHK Apartment for Sale in Osman Nagar Hyderabad,,,Osman Nagar,Hyderabad,17.4417842468164,78.2803618440924,,,Apartment,,,https://www.magicbricks.com/propertyDetails/3-BHK-1836-Sq-ft-Multistorey-Apartment-FOR-Sale-Osman-Nagar-in-Hyderabad&id=4d423738333833393831
"3 BHK Apartment for Sale in Narsingi, Outer Ring Road Hyderabad",,,Narsingi,Hyderabad,17.395367978138943,78.3578086835387,,,Apartment,,,https://www.magicbricks.com/propertyDetails/3-BHK-1610-Sq-ft-Multistorey-Apartment-FOR-Sale-Narsingi-in-Hyderabad&id=4d423738383035323931
"3 BHK Villa for Sale in Ghatkesar, NH 2 2 Hyderabad",,,Ghatkesar,Hyderabad,17.4513233430069,78.6811762527671,,,SingleFamilyResidence,,,https://www.magicbricks.com/propertyDetails/3-BHK-1401-Sq-ft-Villa-FOR-Sale-Ghatkesar-in-Hyderabad&id=4d423830353637303333
"3 BHK Apartment for Sale in Moosapet, NH 9 Hyderabad",,,Moosapet,Hyderabad,17.4931599197008,78.4022774070356,,,Apartment,,,https://www.magicbricks.com/propertyDetails/3-BHK-1840-Sq-ft-Multistorey-Apartment-FOR-Sale-Moosapet-in-Hyderabad&id=4d423739313437343335
3 BHK Apartment for Sale in Kompally Hyderabad,,,Kompally,Hyderabad,17.5425945515091,78.4822910638784,,,Apartment,,,https://www.magicbricks.com/propertyDetails/3-BHK-1600-Sq-ft-Multistorey-Apartment-FOR-Sale-Kompally-in-Hyderabad&id=4d423739333434353633
"3 BHK Apartment for Sale in Narsingi, Outer Ring Road Hyderabad",,,Narsingi,Hyderabad,17.3828435,78.356364,,,Apartment,,,https://www.magicbricks.com/propertyDetails/3-BHK-1431-Sq-ft-Multistorey-Apartment-FOR-Sale-Narsingi-in-Hyderabad&id=4d423830303731383435
"3 BHK Apartment for Sale in Narsingi, Outer Ring Road Hyderabad",,,Narsingi,Hyderabad,17.3828435,78.356364,,,Apartment,,,https://www.magicbricks.com/propertyDetails/3-BHK-1431-Sq-ft-Multistorey-Apartment-FOR-Sale-Narsingi-in-Hyderabad&id=4d423830303731383435
